[{"from": {"name": "Bill & Melinda Gates Foundation", "coordinates": [-122.3321, 47.6062], "extent": [1, 1]}, "to": {"name": "Zambia", "coordinates": [27.849332, -13.133897], "extent": [5.229263345450484, 4.409488671967828]}, "name": "ACTION Global Health Partnership Advocacy Anchor Grant 2014-2017", "outbound": 599180.9689999999}, {"from": {"name": "Bill & Melinda Gates Foundation", "coordinates": [-122.3321, 47.6062], "extent": [1, 1]}, "to": {"name": "Kenya", "coordinates": [37.906193, -0.023559], "extent": [3.87323612334054, 3.8721612987471192]}, "name": "ACTION Global Health Partnership Advocacy Anchor Grant 2014-2017", "outbound": 1198359.876}, {"from": {"name": "Bill & Melinda Gates Foundation", "coordinates": [-122.3321, 47.6062], "extent": [1, 1]}, "to": {"name": "India", "coordinates": [78.96288, 20.593684], "extent": [53.43404063471904, 9.215508640095399]}, "name": "ACTION Global Health Partnership Advocacy Anchor Grant 2014-2017", "outbound": 22768839.2}, {"from": {"name": "Bill & Melinda Gates Foundation", "coordinates": [-122.3321, 47.6062], "extent": [1, 1]}, "to": {"name": "Niger", "coordinates": [8.081666, 17.607789], "extent": [17.705993455360467, 5.721242976763092]}, "name": "IMPACT au Niger", "outbound": 11421630.0}, {"from": {"name": "Bill & Melinda Gates Foundation", "coordinates": [-122.3321, 47.6062], "extent": [1, 1]}, "to": {"name": "Nigeria", "coordinates": [8.675277000000001, 9.081999], "extent": [5.186969091074942, 4.885213423919446]}, "name": "Accelerated: Improving the quality and use of livestock data for decision-making in anchor countries", "outbound": 499385.0}, {"from": {"name": "Bill & Melinda Gates Foundation", "coordinates": [-122.3321, 47.6062], "extent": [1, 1]}, "to": {"name": "Uganda", "coordinates": [32.290275, 1.373333], "extent": [12.733422566078612, 2.498075763117945]}, "name": "Accelerated: Improving the quality and use of livestock data for decision-making in anchor countries", "outbound": 499385.0}, {"from": {"name": "Bill & Melinda Gates Foundation", "coordinates": [-122.3321, 47.6062], "extent": [1, 1]}, "to": {"name": "India", "coordinates": [78.96288, 20.593684], "extent": [53.43404063471904, 9.215508640095399]}, "name": "Grand Challenges India - Achieving healthy growth through Ag and Nutrition", "outbound": 382200.0}, {"from": {"name": "Bill & Melinda Gates Foundation", "coordinates": [-122.3321, 47.6062], "extent": [1, 1]}, "to": {"name": "India", "coordinates": [78.96288, 20.593684], "extent": [53.43404063471904, 9.215508640095399]}, "name": "Community Strengthening to Reduce Risk and Vulnerability in Key Populations in Avahan", "outbound": 9971900.0}, {"from": {"name": "Bill & Melinda Gates Foundation", "coordinates": [-122.3321, 47.6062], "extent": [1, 1]}, "to": {"name": "Senegal", "coordinates": [-14.452361999999999, 14.497401000000002], "extent": [6.386893556640105, 2.2513370495563585]}, "name": "Transforming Tostan\u2019s Monitoring Systems to Drive Quality and Effectiveness at Scale", "outbound": 1910640.0}, {"from": {"name": "Bill & Melinda Gates Foundation", "coordinates": [-122.3321, 47.6062], "extent": [1, 1]}, "to": {"name": "Equatorial Guinea", "coordinates": [10.267895, 1.6508009999999997], "extent": [10.651831893825696, 0.8512875049867346]}, "name": "Transforming Tostan\u2019s Monitoring Systems to Drive Quality and Effectiveness at Scale", "outbound": 215938.0}, {"from": {"name": "Bill & Melinda Gates Foundation", "coordinates": [-122.3321, 47.6062], "extent": [1, 1]}, "to": {"name": "Guinea-Bissau", "coordinates": [-15.180413, 11.803749], "extent": [1.3360452845626656, 0.9659973959554221]}, "name": "Transforming Tostan\u2019s Monitoring Systems to Drive Quality and Effectiveness at Scale", "outbound": 191338.0}, {"from": {"name": "Bill & Melinda Gates Foundation", "coordinates": [-122.3321, 47.6062], "extent": [1, 1]}, "to": {"name": "Mauritania", "coordinates": [-10.940835, 21.00789], "extent": [9.309211125290412, 5.160220062087229]}, "name": "Transforming Tostan\u2019s Monitoring Systems to Drive Quality and Effectiveness at Scale", "outbound": 133936.0}, {"from": {"name": "Bill & Melinda Gates Foundation", "coordinates": [-122.3321, 47.6062], "extent": [1, 1]}, "to": {"name": "Mali", "coordinates": [-3.9961660000000006, 17.570692], "extent": [19.666043653373347, 5.659954337220016]}, "name": "Transforming Tostan\u2019s Monitoring Systems to Drive Quality and Effectiveness at Scale", "outbound": 161270.0}, {"from": {"name": "Bill & Melinda Gates Foundation", "coordinates": [-122.3321, 47.6062], "extent": [1, 1]}, "to": {"name": "Nigeria", "coordinates": [8.675277000000001, 9.081999], "extent": [5.186969091074942, 4.885213423919446]}, "name": "Equipment Procurement for Supply Chain Strengthening in Northern Nigeria", "outbound": 1080000.0}, {"from": {"name": "Bill & Melinda Gates Foundation", "coordinates": [-122.3321, 47.6062], "extent": [1, 1]}, "to": {"name": "Pakistan", "coordinates": [69.345116, 30.375321000000003], "extent": [9.012031736833217, 4.557365954263939]}, "name": "Community-Based RSV Mortality Study in Pakistan", "outbound": 2911702.0}, {"from": {"name": "Bill & Melinda Gates Foundation", "coordinates": [-122.3321, 47.6062], "extent": [1, 1]}, "to": {"name": "India", "coordinates": [78.96288, 20.593684], "extent": [53.43404063471904, 9.215508640095399]}, "name": "Realizing Commitments to Family Planning in India", "outbound": 3868890.0}, {"from": {"name": "Bill & Melinda Gates Foundation", "coordinates": [-122.3321, 47.6062], "extent": [1, 1]}, "to": {"name": "Kenya", "coordinates": [37.906193, -0.023559], "extent": [3.87323612334054, 3.8721612987471192]}, "name": "Christian Advocacy for Family Planning in Africa", "outbound": 375000.0}, {"from": {"name": "Bill & Melinda Gates Foundation", "coordinates": [-122.3321, 47.6062], "extent": [1, 1]}, "to": {"name": "Zambia", "coordinates": [27.849332, -13.133897], "extent": [5.229263345450484, 4.409488671967828]}, "name": "Christian Advocacy for Family Planning in Africa", "outbound": 375000.0}, {"from": {"name": "Bill & Melinda Gates Foundation", "coordinates": [-122.3321, 47.6062], "extent": [1, 1]}, "to": {"name": "Brazil", "coordinates": [-51.92528, -14.235004], "extent": [151.84610404130856, 14.832486781154206]}, "name": "Management support to Eliminate Dengue Brazil", "outbound": 828946.0}, {"from": {"name": "Bill & Melinda Gates Foundation", "coordinates": [-122.3321, 47.6062], "extent": [1, 1]}, "to": {"name": "Nigeria", "coordinates": [8.675277000000001, 9.081999], "extent": [5.186969091074942, 4.885213423919446]}, "name": "State Support to Strengthen Data and Performance Management Systems", "outbound": 11499090.0}, {"from": {"name": "Bill & Melinda Gates Foundation", "coordinates": [-122.3321, 47.6062], "extent": [1, 1]}, "to": {"name": "Bangladesh", "coordinates": [90.35633100000001, 23.684994], "extent": [15.90813216138605, 1.9525453224636848]}, "name": "Morbidity Burden from Cryptosporidiosis at GEMS-Bangladesh", "outbound": 2000000.0}, {"from": {"name": "Bill & Melinda Gates Foundation", "coordinates": [-122.3321, 47.6062], "extent": [1, 1]}, "to": {"name": "Kenya", "coordinates": [37.906193, -0.023559], "extent": [3.87323612334054, 3.8721612987471192]}, "name": "PATH Advocacy Anchor Grant", "outbound": 450693.39999999997}, {"from": {"name": "Bill & Melinda Gates Foundation", "coordinates": [-122.3321, 47.6062], "extent": [1, 1]}, "to": {"name": "Zambia", "coordinates": [27.849332, -13.133897], "extent": [5.229263345450484, 4.409488671967828]}, "name": "PATH Advocacy Anchor Grant", "outbound": 5182972.7}, {"from": {"name": "Bill & Melinda Gates Foundation", "coordinates": [-122.3321, 47.6062], "extent": [1, 1]}, "to": {"name": "United Kingdom", "coordinates": [-3.435973, 55.378051], "extent": [6.43945090392013, 2.508705262045231]}, "name": "PATH Advocacy Anchor Grant", "outbound": 6084358.2}, {"from": {"name": "Bill & Melinda Gates Foundation", "coordinates": [-122.3321, 47.6062], "extent": [1, 1]}, "to": {"name": "South Africa", "coordinates": [22.937506, -30.559482], "extent": [8.569200292968409, 5.613921512918143]}, "name": "PATH Advocacy Anchor Grant", "outbound": 3830896.7}, {"from": {"name": "Bill & Melinda Gates Foundation", "coordinates": [-122.3321, 47.6062], "extent": [1, 1]}, "to": {"name": "Pakistan", "coordinates": [69.345116, 30.375321000000003], "extent": [9.012031736833217, 4.557365954263939]}, "name": "Improving the quality of life of children suffering from polio related disabilities in Pakistan", "outbound": 1325982.0}, {"from": {"name": "Bill & Melinda Gates Foundation", "coordinates": [-122.3321, 47.6062], "extent": [1, 1]}, "to": {"name": "Zambia", "coordinates": [27.849332, -13.133897], "extent": [5.229263345450484, 4.409488671967828]}, "name": "Southern Africa Mother Infant Pertussis Study: Phase I (SAMIPS-1)", "outbound": 1175930.0}, {"from": {"name": "Bill & Melinda Gates Foundation", "coordinates": [-122.3321, 47.6062], "extent": [1, 1]}, "to": {"name": "South Africa", "coordinates": [22.937506, -30.559482], "extent": [8.569200292968409, 5.613921512918143]}, "name": "Nelson Mandela Children's Hospital", "outbound": 10100000.0}, {"from": {"name": "Bill & Melinda Gates Foundation", "coordinates": [-122.3321, 47.6062], "extent": [1, 1]}, "to": {"name": "India", "coordinates": [78.96288, 20.593684], "extent": [53.43404063471904, 9.215508640095399]}, "name": "A Small Animal Model of ETEC-Mediated Diarrhea", "outbound": 100000.0}, {"from": {"name": "Bill & Melinda Gates Foundation", "coordinates": [-122.3321, 47.6062], "extent": [1, 1]}, "to": {"name": "Nigeria", "coordinates": [8.675277000000001, 9.081999], "extent": [5.186969091074942, 4.885213423919446]}, "name": "Support to Polio and Primary Health Care work in Nigeria", "outbound": 240255.0}, {"from": {"name": "Bill & Melinda Gates Foundation", "coordinates": [-122.3321, 47.6062], "extent": [1, 1]}, "to": {"name": "Rwanda", "coordinates": [29.873888, -1.940278], "extent": [2.2841643462755985, 0.824885142871032]}, "name": "Planning: Pan African Health Sciences University #GivingPledge", "outbound": 237500.0}, {"from": {"name": "Bill & Melinda Gates Foundation", "coordinates": [-122.3321, 47.6062], "extent": [1, 1]}, "to": {"name": "Nigeria", "coordinates": [8.675277000000001, 9.081999], "extent": [5.186969091074942, 4.885213423919446]}, "name": "Reaching hard-to-reach and underserved communities in four states of northern Nigeria with an integrated package of maternal/child health interventions.", "outbound": 15127660.0}, {"from": {"name": "Bill & Melinda Gates Foundation", "coordinates": [-122.3321, 47.6062], "extent": [1, 1]}, "to": {"name": "Nigeria", "coordinates": [8.675277000000001, 9.081999], "extent": [5.186969091074942, 4.885213423919446]}, "name": "IPD operational costs", "outbound": 40585800.0}, {"from": {"name": "Bill & Melinda Gates Foundation", "coordinates": [-122.3321, 47.6062], "extent": [1, 1]}, "to": {"name": "Nigeria", "coordinates": [8.675277000000001, 9.081999], "extent": [5.186969091074942, 4.885213423919446]}, "name": "Social mobilization activities and FOMWAN/Dawah Coordination Council support to polio eradication", "outbound": 30277600.0}, {"from": {"name": "Bill & Melinda Gates Foundation", "coordinates": [-122.3321, 47.6062], "extent": [1, 1]}, "to": {"name": "Brazil", "coordinates": [-51.92528, -14.235004], "extent": [151.84610404130856, 14.832486781154206]}, "name": "Grand Challenges Brazil: Reducing the burden of preterm birth", "outbound": 2663860.0}, {"from": {"name": "Bill & Melinda Gates Foundation", "coordinates": [-122.3321, 47.6062], "extent": [1, 1]}, "to": {"name": "Burkina Faso", "coordinates": [-1.561593, 12.238333], "extent": [2.8114751603315202, 2.661557236671882]}, "name": "Viral videos for maternal and child health in Burkina Faso", "outbound": 100000.0}, {"from": {"name": "Bill & Melinda Gates Foundation", "coordinates": [-122.3321, 47.6062], "extent": [1, 1]}, "to": {"name": "Mali", "coordinates": [-3.9961660000000006, 17.570692], "extent": [19.666043653373347, 5.659954337220016]}, "name": "Improving the Patient Experience in Primary Care Clinics", "outbound": 100000.0}, {"from": {"name": "Bill & Melinda Gates Foundation", "coordinates": [-122.3321, 47.6062], "extent": [1, 1]}, "to": {"name": "Kenya", "coordinates": [37.906193, -0.023559], "extent": [3.87323612334054, 3.8721612987471192]}, "name": "How did we do today? Novel system to capture patient experience to inform reproductive health service improvement in Kenya", "outbound": 100000.0}, {"from": {"name": "Bill & Melinda Gates Foundation", "coordinates": [-122.3321, 47.6062], "extent": [1, 1]}, "to": {"name": "Japan", "coordinates": [138.252924, 36.204824], "extent": [40.8759029401437, 3.1243032284979955]}, "name": "Japan ODA and global health and development advocacy", "outbound": 1494020.0}, {"from": {"name": "Bill & Melinda Gates Foundation", "coordinates": [-122.3321, 47.6062], "extent": [1, 1]}, "to": {"name": "India", "coordinates": [78.96288, 20.593684], "extent": [53.43404063471904, 9.215508640095399]}, "name": "Closing a critical HIV prevention gap:  demonstrating safety and effective delivery of daily oral pre-exposure prophylaxis (PrEP) as part of an HIV combination preventive intervention for sex workers in Kolkata and Mysore-Mandya, India", "outbound": 1599920.0}, {"from": {"name": "Bill & Melinda Gates Foundation", "coordinates": [-122.3321, 47.6062], "extent": [1, 1]}, "to": {"name": "India", "coordinates": [78.96288, 20.593684], "extent": [53.43404063471904, 9.215508640095399]}, "name": "SIIL PCV-10 global access and pricing agreement [PDW]", "outbound": 15000000.0}, {"from": {"name": "Bill & Melinda Gates Foundation", "coordinates": [-122.3321, 47.6062], "extent": [1, 1]}, "to": {"name": "Nigeria", "coordinates": [8.675277000000001, 9.081999], "extent": [5.186969091074942, 4.885213423919446]}, "name": "Reaching underserved and isolated communities in Katsina and Kaduna", "outbound": 13827300.0}, {"from": {"name": "Bill & Melinda Gates Foundation", "coordinates": [-122.3321, 47.6062], "extent": [1, 1]}, "to": {"name": "Nigeria", "coordinates": [8.675277000000001, 9.081999], "extent": [5.186969091074942, 4.885213423919446]}, "name": "Inactivated Polio Vaccine (IPV) procurement and Health Camps Funding in Borno State", "outbound": 14342485.0}, {"from": {"name": "Bill & Melinda Gates Foundation", "coordinates": [-122.3321, 47.6062], "extent": [1, 1]}, "to": {"name": "Indonesia", "coordinates": [113.921327, -0.789275], "extent": [9.958735301369934, 7.014536158732801]}, "name": "Testing Decentralized Monitoring for FP Performance Feedback in Indonesia", "outbound": 1276420.0}, {"from": {"name": "Bill & Melinda Gates Foundation", "coordinates": [-122.3321, 47.6062], "extent": [1, 1]}, "to": {"name": "Indonesia", "coordinates": [113.921327, -0.789275], "extent": [9.958735301369934, 7.014536158732801]}, "name": "Achieving Better Family Planning Results: Investment Case for Mass Media Campaigns and Training of Midwives to Boost Usage of Modern Methods, Especially LARC", "outbound": 3285570.0}, {"from": {"name": "Bill & Melinda Gates Foundation", "coordinates": [-122.3321, 47.6062], "extent": [1, 1]}, "to": {"name": "India", "coordinates": [78.96288, 20.593684], "extent": [53.43404063471904, 9.215508640095399]}, "name": "India National MNCH Advocacy - Quality of Care", "outbound": 2059291.0}, {"from": {"name": "Bill & Melinda Gates Foundation", "coordinates": [-122.3321, 47.6062], "extent": [1, 1]}, "to": {"name": "India", "coordinates": [78.96288, 20.593684], "extent": [53.43404063471904, 9.215508640095399]}, "name": "Family Health Research Platform", "outbound": 3293160.0}, {"from": {"name": "Bill & Melinda Gates Foundation", "coordinates": [-122.3321, 47.6062], "extent": [1, 1]}, "to": {"name": "India", "coordinates": [78.96288, 20.593684], "extent": [53.43404063471904, 9.215508640095399]}, "name": "Evaluation of Avahan Community Mobilization Phase III", "outbound": 1449990.0}, {"from": {"name": "Bill & Melinda Gates Foundation", "coordinates": [-122.3321, 47.6062], "extent": [1, 1]}, "to": {"name": "South Africa", "coordinates": [22.937506, -30.559482], "extent": [8.569200292968409, 5.613921512918143]}, "name": "Support of SATVI Clinical Immunology Capacity", "outbound": 340419.0}, {"from": {"name": "Bill & Melinda Gates Foundation", "coordinates": [-122.3321, 47.6062], "extent": [1, 1]}, "to": {"name": "South Africa", "coordinates": [22.937506, -30.559482], "extent": [8.569200292968409, 5.613921512918143]}, "name": "Data utilization and modelling to support TB control policy and practice in South Africa", "outbound": 2081383.0}, {"from": {"name": "Bill & Melinda Gates Foundation", "coordinates": [-122.3321, 47.6062], "extent": [1, 1]}, "to": {"name": "Senegal", "coordinates": [-14.452361999999999, 14.497401000000002], "extent": [6.386893556640105, 2.2513370495563585]}, "name": "Ouagadougou Partnership Coordination Unit", "outbound": 213319.4}, {"from": {"name": "Bill & Melinda Gates Foundation", "coordinates": [-122.3321, 47.6062], "extent": [1, 1]}, "to": {"name": "Burkina Faso", "coordinates": [-1.561593, 12.238333], "extent": [2.8114751603315202, 2.661557236671882]}, "name": "Ouagadougou Partnership Coordination Unit", "outbound": 213319.4}, {"from": {"name": "Bill & Melinda Gates Foundation", "coordinates": [-122.3321, 47.6062], "extent": [1, 1]}, "to": {"name": "Niger", "coordinates": [8.081666, 17.607789], "extent": [17.705993455360467, 5.721242976763092]}, "name": "Ouagadougou Partnership Coordination Unit", "outbound": 213319.4}, {"from": {"name": "Bill & Melinda Gates Foundation", "coordinates": [-122.3321, 47.6062], "extent": [1, 1]}, "to": {"name": "Guinea", "coordinates": [-9.696645, 9.945587], "extent": [2.905463971485629, 2.520248551742249]}, "name": "Ouagadougou Partnership Coordination Unit", "outbound": 213319.4}, {"from": {"name": "Bill & Melinda Gates Foundation", "coordinates": [-122.3321, 47.6062], "extent": [1, 1]}, "to": {"name": "Benin", "coordinates": [2.315834, 9.30769], "extent": [1.7174878497121115, 1.7057282662461577]}, "name": "Ouagadougou Partnership Coordination Unit", "outbound": 213319.4}, {"from": {"name": "Bill & Melinda Gates Foundation", "coordinates": [-122.3321, 47.6062], "extent": [1, 1]}, "to": {"name": "Mauritania", "coordinates": [-10.940835, 21.00789], "extent": [9.309211125290412, 5.160220062087229]}, "name": "Ouagadougou Partnership Coordination Unit", "outbound": 213319.4}, {"from": {"name": "Bill & Melinda Gates Foundation", "coordinates": [-122.3321, 47.6062], "extent": [1, 1]}, "to": {"name": "Mali", "coordinates": [-3.9961660000000006, 17.570692], "extent": [19.666043653373347, 5.659954337220016]}, "name": "Ouagadougou Partnership Coordination Unit", "outbound": 213319.4}, {"from": {"name": "Bill & Melinda Gates Foundation", "coordinates": [-122.3321, 47.6062], "extent": [1, 1]}, "to": {"name": "India", "coordinates": [78.96288, 20.593684], "extent": [53.43404063471904, 9.215508640095399]}, "name": "Ananya Data Services (ADS) and MCTS Integration", "outbound": 266561.0}, {"from": {"name": "Bill & Melinda Gates Foundation", "coordinates": [-122.3321, 47.6062], "extent": [1, 1]}, "to": {"name": "Nigeria", "coordinates": [8.675277000000001, 9.081999], "extent": [5.186969091074942, 4.885213423919446]}, "name": "Outsourcing the distribution of health care commodities in Nigeria", "outbound": 510006.0}, {"from": {"name": "Bill & Melinda Gates Foundation", "coordinates": [-122.3321, 47.6062], "extent": [1, 1]}, "to": {"name": "India", "coordinates": [78.96288, 20.593684], "extent": [53.43404063471904, 9.215508640095399]}, "name": "Study on transitions of adolescents to adulthood in Bihar and Uttar Pradesh, India", "outbound": 3302760.0}, {"from": {"name": "Bill & Melinda Gates Foundation", "coordinates": [-122.3321, 47.6062], "extent": [1, 1]}, "to": {"name": "Pakistan", "coordinates": [69.345116, 30.375321000000003], "extent": [9.012031736833217, 4.557365954263939]}, "name": "Indirect effect of PCV-10 on nasopharyngeal carriage of the pneumococcus", "outbound": 1728406.0}, {"from": {"name": "Bill & Melinda Gates Foundation", "coordinates": [-122.3321, 47.6062], "extent": [1, 1]}, "to": {"name": "India", "coordinates": [78.96288, 20.593684], "extent": [53.43404063471904, 9.215508640095399]}, "name": "Mainstreaming the Emergency Contraception Agenda", "outbound": 499229.0}, {"from": {"name": "Bill & Melinda Gates Foundation", "coordinates": [-122.3321, 47.6062], "extent": [1, 1]}, "to": {"name": "Nigeria", "coordinates": [8.675277000000001, 9.081999], "extent": [5.186969091074942, 4.885213423919446]}, "name": "Mainstreaming the Emergency Contraception Agenda", "outbound": 499229.0}, {"from": {"name": "Bill & Melinda Gates Foundation", "coordinates": [-122.3321, 47.6062], "extent": [1, 1]}, "to": {"name": "Senegal", "coordinates": [-14.452361999999999, 14.497401000000002], "extent": [6.386893556640105, 2.2513370495563585]}, "name": "Mainstreaming the Emergency Contraception Agenda", "outbound": 499229.0}, {"from": {"name": "Bill & Melinda Gates Foundation", "coordinates": [-122.3321, 47.6062], "extent": [1, 1]}, "to": {"name": "Philippines", "coordinates": [121.77401699999999, 12.879721], "extent": [2.9264587173836674, 2.7839582127797446]}, "name": "Sustained National and Local Advocacy for Reproductive Health in the Philippines", "outbound": 968538.0}, {"from": {"name": "Bill & Melinda Gates Foundation", "coordinates": [-122.3321, 47.6062], "extent": [1, 1]}, "to": {"name": "Nigeria", "coordinates": [8.675277000000001, 9.081999], "extent": [5.186969091074942, 4.885213423919446]}, "name": "Cultivating religious leaders as advocates for primary health care including polio eradication, routine immunization, MNCH, WSH, in partnership with Sunnah Global Media", "outbound": 565367.0}, {"from": {"name": "Bill & Melinda Gates Foundation", "coordinates": [-122.3321, 47.6062], "extent": [1, 1]}, "to": {"name": "India", "coordinates": [78.96288, 20.593684], "extent": [53.43404063471904, 9.215508640095399]}, "name": "Build a robust AEFI surveillance system in India and use of technological innovations for routine immunization monitoring and data analysis", "outbound": 6597000.0}, {"from": {"name": "Bill & Melinda Gates Foundation", "coordinates": [-122.3321, 47.6062], "extent": [1, 1]}, "to": {"name": "India", "coordinates": [78.96288, 20.593684], "extent": [53.43404063471904, 9.215508640095399]}, "name": "Delivering Improved Dairy Genetics and Sustained Affordable Access to Sorted (Sexed) Semen Technology to Increase Dairy Productivity for Smallholder Dairy Farmers", "outbound": 10853340.0}, {"from": {"name": "Bill & Melinda Gates Foundation", "coordinates": [-122.3321, 47.6062], "extent": [1, 1]}, "to": {"name": "Ethiopia", "coordinates": [40.489672999999996, 9.145], "extent": [5.614516384368275, 5.396205888474094]}, "name": "MamaYe: Translating Evidence into Action for Maternal and Newborn Health", "outbound": 2024470.0}, {"from": {"name": "Bill & Melinda Gates Foundation", "coordinates": [-122.3321, 47.6062], "extent": [1, 1]}, "to": {"name": "Nigeria", "coordinates": [8.675277000000001, 9.081999], "extent": [5.186969091074942, 4.885213423919446]}, "name": "MamaYe: Translating Evidence into Action for Maternal and Newborn Health", "outbound": 3529625.0}, {"from": {"name": "Bill & Melinda Gates Foundation", "coordinates": [-122.3321, 47.6062], "extent": [1, 1]}, "to": {"name": "Malawi", "coordinates": [34.301525, -13.254307999999998], "extent": [2.2646125234687022, 1.7495429462177536]}, "name": "MamaYe: Translating Evidence into Action for Maternal and Newborn Health", "outbound": 3247953.0}, {"from": {"name": "Bill & Melinda Gates Foundation", "coordinates": [-122.3321, 47.6062], "extent": [1, 1]}, "to": {"name": "India", "coordinates": [78.96288, 20.593684], "extent": [53.43404063471904, 9.215508640095399]}, "name": "Improving Maternal and Neonatal Health in Bihar", "outbound": 3584020.0}, {"from": {"name": "Bill & Melinda Gates Foundation", "coordinates": [-122.3321, 47.6062], "extent": [1, 1]}, "to": {"name": "Nigeria", "coordinates": [8.675277000000001, 9.081999], "extent": [5.186969091074942, 4.885213423919446]}, "name": "Addressing Global Market Failures for Antibiotics", "outbound": 6764300.0}, {"from": {"name": "Bill & Melinda Gates Foundation", "coordinates": [-122.3321, 47.6062], "extent": [1, 1]}, "to": {"name": "Nigeria", "coordinates": [8.675277000000001, 9.081999], "extent": [5.186969091074942, 4.885213423919446]}, "name": "Strengthening routine immunization and Poliomyelitis Eradication Initiative in Bauchi State, Nigeria", "outbound": 3554580.0}, {"from": {"name": "Bill & Melinda Gates Foundation", "coordinates": [-122.3321, 47.6062], "extent": [1, 1]}, "to": {"name": "Ethiopia", "coordinates": [40.489672999999996, 9.145], "extent": [5.614516384368275, 5.396205888474094]}, "name": "Population Services International_FPWatch", "outbound": 924134.0}, {"from": {"name": "Bill & Melinda Gates Foundation", "coordinates": [-122.3321, 47.6062], "extent": [1, 1]}, "to": {"name": "India", "coordinates": [78.96288, 20.593684], "extent": [53.43404063471904, 9.215508640095399]}, "name": "Population Services International_FPWatch", "outbound": 1390020.0}, {"from": {"name": "Bill & Melinda Gates Foundation", "coordinates": [-122.3321, 47.6062], "extent": [1, 1]}, "to": {"name": "Nigeria", "coordinates": [8.675277000000001, 9.081999], "extent": [5.186969091074942, 4.885213423919446]}, "name": "Population Services International_FPWatch", "outbound": 931772.0}, {"from": {"name": "Bill & Melinda Gates Foundation", "coordinates": [-122.3321, 47.6062], "extent": [1, 1]}, "to": {"name": "Malawi", "coordinates": [34.301525, -13.254307999999998], "extent": [2.2646125234687022, 1.7495429462177536]}, "name": "Improving Preterm Newborn Outcomes in Malawi", "outbound": 3238409.0}, {"from": {"name": "Bill & Melinda Gates Foundation", "coordinates": [-122.3321, 47.6062], "extent": [1, 1]}, "to": {"name": "India", "coordinates": [78.96288, 20.593684], "extent": [53.43404063471904, 9.215508640095399]}, "name": "Social Supply Chain Network", "outbound": 2047170.0}, {"from": {"name": "Bill & Melinda Gates Foundation", "coordinates": [-122.3321, 47.6062], "extent": [1, 1]}, "to": {"name": "China", "coordinates": [104.195397, 35.86166], "extent": [59.680477762670186, 15.726201861922428]}, "name": "Phased introduction of Sabin IPV in China", "outbound": 802500.0}, {"from": {"name": "Bill & Melinda Gates Foundation", "coordinates": [-122.3321, 47.6062], "extent": [1, 1]}, "to": {"name": "India", "coordinates": [78.96288, 20.593684], "extent": [53.43404063471904, 9.215508640095399]}, "name": "Technical Assistance for Primary Care Delivery through PPP", "outbound": 999999.0}, {"from": {"name": "Bill & Melinda Gates Foundation", "coordinates": [-122.3321, 47.6062], "extent": [1, 1]}, "to": {"name": "El Salvador", "coordinates": [-88.89653, 13.794185], "extent": [2.1923109883226566, 0.7372672669477913]}, "name": "Eliminating Malaria in El Salvador: An Historical and Epidemiological Perspective", "outbound": 129725.0}, {"from": {"name": "Bill & Melinda Gates Foundation", "coordinates": [-122.3321, 47.6062], "extent": [1, 1]}, "to": {"name": "Zambia", "coordinates": [27.849332, -13.133897], "extent": [5.229263345450484, 4.409488671967828]}, "name": "Site preparation activities in support of the upcoming southern Africa Mother-Infant Pertussis Study (SAMIPS)", "outbound": 41457.0}, {"from": {"name": "Bill & Melinda Gates Foundation", "coordinates": [-122.3321, 47.6062], "extent": [1, 1]}, "to": {"name": "India", "coordinates": [78.96288, 20.593684], "extent": [53.43404063471904, 9.215508640095399]}, "name": "Strengthening awareness of elected representatives on Maternal and Child health and Digital Financial inclusion in India", "outbound": 240800.0}, {"from": {"name": "Bill & Melinda Gates Foundation", "coordinates": [-122.3321, 47.6062], "extent": [1, 1]}, "to": {"name": "Nepal", "coordinates": [84.12400799999999, 28.394857000000002], "extent": [1.9642188192933647, 1.9499701332814292]}, "name": "Trajectory of seasonal, growth faltering: A cohort study of Infants in Dhanusha, Nepal", "outbound": 84436.0}, {"from": {"name": "Bill & Melinda Gates Foundation", "coordinates": [-122.3321, 47.6062], "extent": [1, 1]}, "to": {"name": "Uganda", "coordinates": [32.290275, 1.373333], "extent": [12.733422566078612, 2.498075763117945]}, "name": "Evaluating effectiveness, efficiency and cost of ART service delivery models in Uganda and Zambia", "outbound": 548060.5}, {"from": {"name": "Bill & Melinda Gates Foundation", "coordinates": [-122.3321, 47.6062], "extent": [1, 1]}, "to": {"name": "Zambia", "coordinates": [27.849332, -13.133897], "extent": [5.229263345450484, 4.409488671967828]}, "name": "Evaluating effectiveness, efficiency and cost of ART service delivery models in Uganda and Zambia", "outbound": 548060.5}, {"from": {"name": "Bill & Melinda Gates Foundation", "coordinates": [-122.3321, 47.6062], "extent": [1, 1]}, "to": {"name": "Nigeria", "coordinates": [8.675277000000001, 9.081999], "extent": [5.186969091074942, 4.885213423919446]}, "name": "Overhaul of immunization data system and integration at NPHCDA", "outbound": 6303660.0}, {"from": {"name": "Bill & Melinda Gates Foundation", "coordinates": [-122.3321, 47.6062], "extent": [1, 1]}, "to": {"name": "Haiti", "coordinates": [-72.28521500000001, 18.971187], "extent": [0.8530098245468459, 0.8467078351306315]}, "name": "Elimination of malaria on Hispaniola", "outbound": 30220288.0}, {"from": {"name": "Bill & Melinda Gates Foundation", "coordinates": [-122.3321, 47.6062], "extent": [1, 1]}, "to": {"name": "India", "coordinates": [78.96288, 20.593684], "extent": [53.43404063471904, 9.215508640095399]}, "name": "Prioritization of RMNCH and Nutrition in UP", "outbound": 3128350.0}, {"from": {"name": "Bill & Melinda Gates Foundation", "coordinates": [-122.3321, 47.6062], "extent": [1, 1]}, "to": {"name": "Nigeria", "coordinates": [8.675277000000001, 9.081999], "extent": [5.186969091074942, 4.885213423919446]}, "name": "State Accountability for Quality Improvement Project (SAQIP)", "outbound": 16655970.0}, {"from": {"name": "Bill & Melinda Gates Foundation", "coordinates": [-122.3321, 47.6062], "extent": [1, 1]}, "to": {"name": "South Africa", "coordinates": [22.937506, -30.559482], "extent": [8.569200292968409, 5.613921512918143]}, "name": "Pertussis burden of disease study", "outbound": 779384.0}, {"from": {"name": "Bill & Melinda Gates Foundation", "coordinates": [-122.3321, 47.6062], "extent": [1, 1]}, "to": {"name": "Nigeria", "coordinates": [8.675277000000001, 9.081999], "extent": [5.186969091074942, 4.885213423919446]}, "name": "CIP/TSU - Supporting the Nigerian MOH for the successful implementation of the costed plan", "outbound": 3997380.0}, {"from": {"name": "Bill & Melinda Gates Foundation", "coordinates": [-122.3321, 47.6062], "extent": [1, 1]}, "to": {"name": "Mozambique", "coordinates": [35.529562, -18.665695], "extent": [4.6287166120749985, 4.550700252890953]}, "name": "Cold Chain RTM and Integration with eLMIS", "outbound": 327319.0}, {"from": {"name": "Bill & Melinda Gates Foundation", "coordinates": [-122.3321, 47.6062], "extent": [1, 1]}, "to": {"name": "India", "coordinates": [78.96288, 20.593684], "extent": [53.43404063471904, 9.215508640095399]}, "name": "Cold Chain RTM and Integration with eLMIS", "outbound": 404938.0}, {"from": {"name": "Bill & Melinda Gates Foundation", "coordinates": [-122.3321, 47.6062], "extent": [1, 1]}, "to": {"name": "Zambia", "coordinates": [27.849332, -13.133897], "extent": [5.229263345450484, 4.409488671967828]}, "name": "Efficient, effective, and innovative MC service delivery in Zambia", "outbound": 13000000.0}, {"from": {"name": "Bill & Melinda Gates Foundation", "coordinates": [-122.3321, 47.6062], "extent": [1, 1]}, "to": {"name": "India", "coordinates": [78.96288, 20.593684], "extent": [53.43404063471904, 9.215508640095399]}, "name": "Innovative Model in Public Facilities \u2013 Bihar", "outbound": 3498070.0}, {"from": {"name": "Bill & Melinda Gates Foundation", "coordinates": [-122.3321, 47.6062], "extent": [1, 1]}, "to": {"name": "India", "coordinates": [78.96288, 20.593684], "extent": [53.43404063471904, 9.215508640095399]}, "name": "Improving treatment for Child Health in Rural Bihar", "outbound": 6299340.0}, {"from": {"name": "Bill & Melinda Gates Foundation", "coordinates": [-122.3321, 47.6062], "extent": [1, 1]}, "to": {"name": "Mozambique", "coordinates": [35.529562, -18.665695], "extent": [4.6287166120749985, 4.550700252890953]}, "name": "The BMGF/La Caixa Partnership for the Elimination of Malaria in Southern Mozambique", "outbound": 14400000.0}, {"from": {"name": "Bill & Melinda Gates Foundation", "coordinates": [-122.3321, 47.6062], "extent": [1, 1]}, "to": {"name": "Mongolia", "coordinates": [103.84665600000001, 46.862496], "extent": [6.582158236954145, 6.358567058763694]}, "name": "Using NP carriage surveillance in children hospitalized with respiratory illness or pneumonia to demonstrate direct and indirect effects of PCV", "outbound": 748696.0}, {"from": {"name": "Bill & Melinda Gates Foundation", "coordinates": [-122.3321, 47.6062], "extent": [1, 1]}, "to": {"name": "Papua New Guinea", "coordinates": [143.95555, -6.314993], "extent": [3.4596905762532186, 3.457940588602015]}, "name": "Using NP carriage surveillance in children hospitalized with respiratory illness or pneumonia to demonstrate direct and indirect effects of PCV", "outbound": 748696.0}, {"from": {"name": "Bill & Melinda Gates Foundation", "coordinates": [-122.3321, 47.6062], "extent": [1, 1]}, "to": {"name": "Australia", "coordinates": [133.775136, -25.274398], "extent": [14.239491065953247, 14.096860438692852]}, "name": "Using NP carriage surveillance in children hospitalized with respiratory illness or pneumonia to demonstrate direct and indirect effects of PCV", "outbound": 748696.0}, {"from": {"name": "Bill & Melinda Gates Foundation", "coordinates": [-122.3321, 47.6062], "extent": [1, 1]}, "to": {"name": "Pakistan", "coordinates": [69.345116, 30.375321000000003], "extent": [9.012031736833217, 4.557365954263939]}, "name": "GoP Routine Immunization buy-down: National Immunization Support Project", "outbound": 25632400.0}, {"from": {"name": "Bill & Melinda Gates Foundation", "coordinates": [-122.3321, 47.6062], "extent": [1, 1]}, "to": {"name": "India", "coordinates": [78.96288, 20.593684], "extent": [53.43404063471904, 9.215508640095399]}, "name": "Improved quality of community and low level facility management of childhood pneumonia and diarrhea in Uttar Pradesh", "outbound": 6480700.0}, {"from": {"name": "Bill & Melinda Gates Foundation", "coordinates": [-122.3321, 47.6062], "extent": [1, 1]}, "to": {"name": "India", "coordinates": [78.96288, 20.593684], "extent": [53.43404063471904, 9.215508640095399]}, "name": "Expand Access and Quality to Broaden Method Choice in Uttar Pradesh", "outbound": 8099811.0}, {"from": {"name": "Bill & Melinda Gates Foundation", "coordinates": [-122.3321, 47.6062], "extent": [1, 1]}, "to": {"name": "Nigeria", "coordinates": [8.675277000000001, 9.081999], "extent": [5.186969091074942, 4.885213423919446]}, "name": "Continuous Quality Improvement in Maternal and Neonatal Health in Nigeria", "outbound": 4999500.0}, {"from": {"name": "Bill & Melinda Gates Foundation", "coordinates": [-122.3321, 47.6062], "extent": [1, 1]}, "to": {"name": "Zambia", "coordinates": [27.849332, -13.133897], "extent": [5.229263345450484, 4.409488671967828]}, "name": "Preventing Congenital Syphilis", "outbound": 2888290.0}, {"from": {"name": "Bill & Melinda Gates Foundation", "coordinates": [-122.3321, 47.6062], "extent": [1, 1]}, "to": {"name": "Bangladesh", "coordinates": [90.35633100000001, 23.684994], "extent": [15.90813216138605, 1.9525453224636848]}, "name": "Strengthening icddrb's capacity to partner with advocacy organizations", "outbound": 1000000.0}, {"from": {"name": "Bill & Melinda Gates Foundation", "coordinates": [-122.3321, 47.6062], "extent": [1, 1]}, "to": {"name": "India", "coordinates": [78.96288, 20.593684], "extent": [53.43404063471904, 9.215508640095399]}, "name": "Intussusception in Infants: Multisite Retrospective Surveillance in India", "outbound": 830306.0}, {"from": {"name": "Bill & Melinda Gates Foundation", "coordinates": [-122.3321, 47.6062], "extent": [1, 1]}, "to": {"name": "India", "coordinates": [78.96288, 20.593684], "extent": [53.43404063471904, 9.215508640095399]}, "name": "National level technical support to the National Rural Livelihoods Mission (NRLM) to integrate health interventions in self-help groups", "outbound": 999986.0}, {"from": {"name": "Bill & Melinda Gates Foundation", "coordinates": [-122.3321, 47.6062], "extent": [1, 1]}, "to": {"name": "Nigeria", "coordinates": [8.675277000000001, 9.081999], "extent": [5.186969091074942, 4.885213423919446]}, "name": "Supporting Strategic Advocacy and Government Partnerships in Nigeria", "outbound": 449908.0}, {"from": {"name": "Bill & Melinda Gates Foundation", "coordinates": [-122.3321, 47.6062], "extent": [1, 1]}, "to": {"name": "South Africa", "coordinates": [22.937506, -30.559482], "extent": [8.569200292968409, 5.613921512918143]}, "name": "Using newly described correlates of risk of TB disease to impact the epidemic", "outbound": 223577.0}, {"from": {"name": "Bill & Melinda Gates Foundation", "coordinates": [-122.3321, 47.6062], "extent": [1, 1]}, "to": {"name": "South Africa", "coordinates": [22.937506, -30.559482], "extent": [8.569200292968409, 5.613921512918143]}, "name": "Highly TB exposed, persistently uninfected South African gold miners", "outbound": 971347.0}, {"from": {"name": "Bill & Melinda Gates Foundation", "coordinates": [-122.3321, 47.6062], "extent": [1, 1]}, "to": {"name": "South Africa", "coordinates": [22.937506, -30.559482], "extent": [8.569200292968409, 5.613921512918143]}, "name": "Aerobiology of TB Transmission", "outbound": 1999950.0}, {"from": {"name": "Bill & Melinda Gates Foundation", "coordinates": [-122.3321, 47.6062], "extent": [1, 1]}, "to": {"name": "India", "coordinates": [78.96288, 20.593684], "extent": [53.43404063471904, 9.215508640095399]}, "name": "Helping 100,000 Babies Survive and Thrive", "outbound": 444444.0}, {"from": {"name": "Bill & Melinda Gates Foundation", "coordinates": [-122.3321, 47.6062], "extent": [1, 1]}, "to": {"name": "Ethiopia", "coordinates": [40.489672999999996, 9.145], "extent": [5.614516384368275, 5.396205888474094]}, "name": "Helping 100,000 Babies Survive and Thrive", "outbound": 277778.0}, {"from": {"name": "Bill & Melinda Gates Foundation", "coordinates": [-122.3321, 47.6062], "extent": [1, 1]}, "to": {"name": "Nigeria", "coordinates": [8.675277000000001, 9.081999], "extent": [5.186969091074942, 4.885213423919446]}, "name": "Helping 100,000 Babies Survive and Thrive", "outbound": 277778.0}, {"from": {"name": "Bill & Melinda Gates Foundation", "coordinates": [-122.3321, 47.6062], "extent": [1, 1]}, "to": {"name": "Nigeria", "coordinates": [8.675277000000001, 9.081999], "extent": [5.186969091074942, 4.885213423919446]}, "name": "Planning Grant to activate PPFN network to spread FP behaviors and practices", "outbound": 431947.0}, {"from": {"name": "Bill & Melinda Gates Foundation", "coordinates": [-122.3321, 47.6062], "extent": [1, 1]}, "to": {"name": "Sierra Leone", "coordinates": [-11.779889, 8.460555000000001], "extent": [2.404759322114951, 1.3708462022425487]}, "name": "Ebola: Emergency Response to the Ebola Outbreak in West Africa", "outbound": 800000.0}, {"from": {"name": "Bill & Melinda Gates Foundation", "coordinates": [-122.3321, 47.6062], "extent": [1, 1]}, "to": {"name": "Guinea", "coordinates": [-9.696645, 9.945587], "extent": [2.905463971485629, 2.520248551742249]}, "name": "Ebola: Emergency Response to the Ebola Outbreak in West Africa", "outbound": 650000.0}, {"from": {"name": "Bill & Melinda Gates Foundation", "coordinates": [-122.3321, 47.6062], "extent": [1, 1]}, "to": {"name": "Guinea-Bissau", "coordinates": [-15.180413, 11.803749], "extent": [1.3360452845626656, 0.9659973959554221]}, "name": "Ebola: Emergency Response to the Ebola Outbreak in West Africa", "outbound": 50000.0}, {"from": {"name": "Bill & Melinda Gates Foundation", "coordinates": [-122.3321, 47.6062], "extent": [1, 1]}, "to": {"name": "Mali", "coordinates": [-3.9961660000000006, 17.570692], "extent": [19.666043653373347, 5.659954337220016]}, "name": "Ebola: Emergency Response to the Ebola Outbreak in West Africa", "outbound": 150000.0}, {"from": {"name": "Bill & Melinda Gates Foundation", "coordinates": [-122.3321, 47.6062], "extent": [1, 1]}, "to": {"name": "Liberia", "coordinates": [-9.429499, 6.4280550000000005], "extent": [1.7141923160755292, 1.6962356816572859]}, "name": "Ebola: Emergency Response to the Ebola Outbreak in West Africa", "outbound": 1100000.0}, {"from": {"name": "Bill & Melinda Gates Foundation", "coordinates": [-122.3321, 47.6062], "extent": [1, 1]}, "to": {"name": "Ghana", "coordinates": [-1.0231940000000002, 7.946527000000001], "extent": [26.862604725489387, 2.4824624745457715]}, "name": "Ebola: Emergency Response to the Ebola Outbreak in West Africa", "outbound": 2200000.0}, {"from": {"name": "Bill & Melinda Gates Foundation", "coordinates": [-122.3321, 47.6062], "extent": [1, 1]}, "to": {"name": "Senegal", "coordinates": [-14.452361999999999, 14.497401000000002], "extent": [6.386893556640105, 2.2513370495563585]}, "name": "Ebola: Emergency Response to the Ebola Outbreak in West Africa", "outbound": 50000.0}, {"from": {"name": "Bill & Melinda Gates Foundation", "coordinates": [-122.3321, 47.6062], "extent": [1, 1]}, "to": {"name": "Indonesia", "coordinates": [113.921327, -0.789275], "extent": [9.958735301369934, 7.014536158732801]}, "name": "Save the Children UK Anchor Grant 2015-2017", "outbound": 4223569.76}, {"from": {"name": "Bill & Melinda Gates Foundation", "coordinates": [-122.3321, 47.6062], "extent": [1, 1]}, "to": {"name": "Kenya", "coordinates": [37.906193, -0.023559], "extent": [3.87323612334054, 3.8721612987471192]}, "name": "Save the Children UK Anchor Grant 2015-2017", "outbound": 1299559.8499999999}, {"from": {"name": "Bill & Melinda Gates Foundation", "coordinates": [-122.3321, 47.6062], "extent": [1, 1]}, "to": {"name": "Nigeria", "coordinates": [8.675277000000001, 9.081999], "extent": [5.186969091074942, 4.885213423919446]}, "name": "Save the Children UK Anchor Grant 2015-2017", "outbound": 9827926.899999999}, {"from": {"name": "Bill & Melinda Gates Foundation", "coordinates": [-122.3321, 47.6062], "extent": [1, 1]}, "to": {"name": "Liberia", "coordinates": [-9.429499, 6.4280550000000005], "extent": [1.7141923160755292, 1.6962356816572859]}, "name": "Save the Children UK Anchor Grant 2015-2017", "outbound": 974669.9099999999}, {"from": {"name": "Bill & Melinda Gates Foundation", "coordinates": [-122.3321, 47.6062], "extent": [1, 1]}, "to": {"name": "Ethiopia", "coordinates": [40.489672999999996, 9.145], "extent": [5.614516384368275, 5.396205888474094]}, "name": "Save the Children UK Anchor Grant 2015-2017", "outbound": 1705673.29}, {"from": {"name": "Bill & Melinda Gates Foundation", "coordinates": [-122.3321, 47.6062], "extent": [1, 1]}, "to": {"name": "India", "coordinates": [78.96288, 20.593684], "extent": [53.43404063471904, 9.215508640095399]}, "name": "Save the Children UK Anchor Grant 2015-2017", "outbound": 2680343.0}, {"from": {"name": "Bill & Melinda Gates Foundation", "coordinates": [-122.3321, 47.6062], "extent": [1, 1]}, "to": {"name": "Uganda", "coordinates": [32.290275, 1.373333], "extent": [12.733422566078612, 2.498075763117945]}, "name": "Rural clinic immunization video capture", "outbound": 761400.0}, {"from": {"name": "Bill & Melinda Gates Foundation", "coordinates": [-122.3321, 47.6062], "extent": [1, 1]}, "to": {"name": "Nigeria", "coordinates": [8.675277000000001, 9.081999], "extent": [5.186969091074942, 4.885213423919446]}, "name": "Support to Scaling up of Integrated Community Case Management Programs in Nigeria", "outbound": 1495590.0}, {"from": {"name": "Bill & Melinda Gates Foundation", "coordinates": [-122.3321, 47.6062], "extent": [1, 1]}, "to": {"name": "Bangladesh", "coordinates": [90.35633100000001, 23.684994], "extent": [15.90813216138605, 1.9525453224636848]}, "name": "Group B Streptococcus colonization in mother-newborn dyads and association with anti-capsular serotype-specific antibodies in low and middle income South Asian and African countries", "outbound": 325130.0}, {"from": {"name": "Bill & Melinda Gates Foundation", "coordinates": [-122.3321, 47.6062], "extent": [1, 1]}, "to": {"name": "South Africa", "coordinates": [22.937506, -30.559482], "extent": [8.569200292968409, 5.613921512918143]}, "name": "Group B Streptococcus colonization in mother-newborn dyads and association with anti-capsular serotype-specific antibodies in low and middle income South Asian and African countries", "outbound": 4758000.0}, {"from": {"name": "Bill & Melinda Gates Foundation", "coordinates": [-122.3321, 47.6062], "extent": [1, 1]}, "to": {"name": "Bhutan", "coordinates": [90.433601, 27.514162], "extent": [1.520485256813698, 1.1019224058188462]}, "name": "Group B Streptococcus colonization in mother-newborn dyads and association with anti-capsular serotype-specific antibodies in low and middle income South Asian and African countries", "outbound": 325130.0}, {"from": {"name": "Bill & Melinda Gates Foundation", "coordinates": [-122.3321, 47.6062], "extent": [1, 1]}, "to": {"name": "India", "coordinates": [78.96288, 20.593684], "extent": [53.43404063471904, 9.215508640095399]}, "name": "Leveraging the Village Health, Sanitation and Nutrition Days (VHSNDs) to improve the reach of Community Health Workers (CHWs) in Bihar", "outbound": 999580.0}, {"from": {"name": "Bill & Melinda Gates Foundation", "coordinates": [-122.3321, 47.6062], "extent": [1, 1]}, "to": {"name": "India", "coordinates": [78.96288, 20.593684], "extent": [53.43404063471904, 9.215508640095399]}, "name": "Enhanced Pneumonia Surveillance in 1-2 high burden districts of India, in UP&Bihar", "outbound": 1107582.0}, {"from": {"name": "Bill & Melinda Gates Foundation", "coordinates": [-122.3321, 47.6062], "extent": [1, 1]}, "to": {"name": "Netherlands", "coordinates": [5.291266, 52.132633], "extent": [3.5467190273825175, 1.0357671540497577]}, "name": "Planning Grant: nOPV2 Seedlots Project [PDW]", "outbound": 99921.0}, {"from": {"name": "Bill & Melinda Gates Foundation", "coordinates": [-122.3321, 47.6062], "extent": [1, 1]}, "to": {"name": "Bangladesh", "coordinates": [90.35633100000001, 23.684994], "extent": [15.90813216138605, 1.9525453224636848]}, "name": "Introducing Group Prenatal Care in  Bangladesh", "outbound": 100000.0}, {"from": {"name": "Bill & Melinda Gates Foundation", "coordinates": [-122.3321, 47.6062], "extent": [1, 1]}, "to": {"name": "Kenya", "coordinates": [37.906193, -0.023559], "extent": [3.87323612334054, 3.8721612987471192]}, "name": "Manicures and Preventative Healthcare!", "outbound": 100000.0}, {"from": {"name": "Bill & Melinda Gates Foundation", "coordinates": [-122.3321, 47.6062], "extent": [1, 1]}, "to": {"name": "Nigeria", "coordinates": [8.675277000000001, 9.081999], "extent": [5.186969091074942, 4.885213423919446]}, "name": "Kano Monitoring and Reporting", "outbound": 821360.0}, {"from": {"name": "Bill & Melinda Gates Foundation", "coordinates": [-122.3321, 47.6062], "extent": [1, 1]}, "to": {"name": "Cameroon", "coordinates": [12.354722, 7.369722], "extent": [7.528016843867639, 3.504692696112229]}, "name": "Emergency Response to Central African Republic Refugee Crisis and Cholera Outbreak in Cameroon", "outbound": 900000.0}, {"from": {"name": "Bill & Melinda Gates Foundation", "coordinates": [-122.3321, 47.6062], "extent": [1, 1]}, "to": {"name": "Senegal", "coordinates": [-14.452361999999999, 14.497401000000002], "extent": [6.386893556640105, 2.2513370495563585]}, "name": "Sustainably reinforcing the community health system of Senegal to accelerate the plan to meet its 2015 objectives in FP and MNCH", "outbound": 3005940.0}, {"from": {"name": "Bill & Melinda Gates Foundation", "coordinates": [-122.3321, 47.6062], "extent": [1, 1]}, "to": {"name": "Bangladesh", "coordinates": [90.35633100000001, 23.684994], "extent": [15.90813216138605, 1.9525453224636848]}, "name": "Deworming Reproductive Age Women for Helminth Elimination", "outbound": 100000.0}, {"from": {"name": "Bill & Melinda Gates Foundation", "coordinates": [-122.3321, 47.6062], "extent": [1, 1]}, "to": {"name": "Togo", "coordinates": [0.824782, 8.619543], "extent": [1.747922244619485, 1.2112084720402978]}, "name": "Hydrocele and Trichiasis Surveillance and Surgery in Togo", "outbound": 100000.0}, {"from": {"name": "Bill & Melinda Gates Foundation", "coordinates": [-122.3321, 47.6062], "extent": [1, 1]}, "to": {"name": "Honduras", "coordinates": [-86.241905, 15.199998999999998], "extent": [1.94762366352083, 1.701709876483229]}, "name": "Combating STH via Integrated Child Health Services, Honduras", "outbound": 100000.0}, {"from": {"name": "Bill & Melinda Gates Foundation", "coordinates": [-122.3321, 47.6062], "extent": [1, 1]}, "to": {"name": "Yemen", "coordinates": [48.516388, 15.552726999999999], "extent": [3.738184567944086, 3.693233003664083]}, "name": "Community Mobilization Against NTDs in Yemen", "outbound": 100000.0}, {"from": {"name": "Bill & Melinda Gates Foundation", "coordinates": [-122.3321, 47.6062], "extent": [1, 1]}, "to": {"name": "Netherlands", "coordinates": [5.291266, 52.132633], "extent": [3.5467190273825175, 1.0357671540497577]}, "name": "IntraVacc: Master/Working Virus Seed Manufacturing", "outbound": 3910150.0}, {"from": {"name": "Bill & Melinda Gates Foundation", "coordinates": [-122.3321, 47.6062], "extent": [1, 1]}, "to": {"name": "South Africa", "coordinates": [22.937506, -30.559482], "extent": [8.569200292968409, 5.613921512918143]}, "name": "PRE-EMPT (PRE-eclampsia-Eclampsia Monitoring, Prevention,&Treatment): Global Pregnancy CoLaboratory", "outbound": 30489.2}, {"from": {"name": "Bill & Melinda Gates Foundation", "coordinates": [-122.3321, 47.6062], "extent": [1, 1]}, "to": {"name": "United Kingdom", "coordinates": [-3.435973, 55.378051], "extent": [6.43945090392013, 2.508705262045231]}, "name": "PRE-EMPT (PRE-eclampsia-Eclampsia Monitoring, Prevention,&Treatment): Global Pregnancy CoLaboratory", "outbound": 317088.0}, {"from": {"name": "Bill & Melinda Gates Foundation", "coordinates": [-122.3321, 47.6062], "extent": [1, 1]}, "to": {"name": "Brazil", "coordinates": [-51.92528, -14.235004], "extent": [151.84610404130856, 14.832486781154206]}, "name": "PRE-EMPT (PRE-eclampsia-Eclampsia Monitoring, Prevention,&Treatment): Global Pregnancy CoLaboratory", "outbound": 18293.5}, {"from": {"name": "Bill & Melinda Gates Foundation", "coordinates": [-122.3321, 47.6062], "extent": [1, 1]}, "to": {"name": "India", "coordinates": [78.96288, 20.593684], "extent": [53.43404063471904, 9.215508640095399]}, "name": "PRE-EMPT (PRE-eclampsia-Eclampsia Monitoring, Prevention,&Treatment): Global Pregnancy CoLaboratory", "outbound": 17277.2}, {"from": {"name": "Bill & Melinda Gates Foundation", "coordinates": [-122.3321, 47.6062], "extent": [1, 1]}, "to": {"name": "Armenia", "coordinates": [45.038189, 40.069099], "extent": [1.2241003031585858, 0.8774254294031925]}, "name": "Go Baby Go!", "outbound": 100000.0}, {"from": {"name": "Bill & Melinda Gates Foundation", "coordinates": [-122.3321, 47.6062], "extent": [1, 1]}, "to": {"name": "China", "coordinates": [104.195397, 35.86166], "extent": [59.680477762670186, 15.726201861922428]}, "name": "Technical assistance for a clustered randomised trial of electronic adherence monitoring in China", "outbound": 629397.0}, {"from": {"name": "Bill & Melinda Gates Foundation", "coordinates": [-122.3321, 47.6062], "extent": [1, 1]}, "to": {"name": "Pakistan", "coordinates": [69.345116, 30.375321000000003], "extent": [9.012031736833217, 4.557365954263939]}, "name": "The Validity of Trans cerebellar Diameter in Late Pregnancy for Measurement of Gestational Age in the AMANHI Bio-repository Cohorts", "outbound": 258508.0}, {"from": {"name": "Bill & Melinda Gates Foundation", "coordinates": [-122.3321, 47.6062], "extent": [1, 1]}, "to": {"name": "Bangladesh", "coordinates": [90.35633100000001, 23.684994], "extent": [15.90813216138605, 1.9525453224636848]}, "name": "The Validity of Transcerebellar Diameter in Late Pregnancy for Measurement of Gestational Age in the AMANHI Bio-repository Cohorts", "outbound": 391333.0}, {"from": {"name": "Bill & Melinda Gates Foundation", "coordinates": [-122.3321, 47.6062], "extent": [1, 1]}, "to": {"name": "Nigeria", "coordinates": [8.675277000000001, 9.081999], "extent": [5.186969091074942, 4.885213423919446]}, "name": "Vaccine Independence Initiative (VII)", "outbound": 1138110.0}, {"from": {"name": "Bill & Melinda Gates Foundation", "coordinates": [-122.3321, 47.6062], "extent": [1, 1]}, "to": {"name": "Ethiopia", "coordinates": [40.489672999999996, 9.145], "extent": [5.614516384368275, 5.396205888474094]}, "name": "Passive Vaccine Storage Device (PVSD), Phase II Field Trial", "outbound": 868090.0}, {"from": {"name": "Bill & Melinda Gates Foundation", "coordinates": [-122.3321, 47.6062], "extent": [1, 1]}, "to": {"name": "India", "coordinates": [78.96288, 20.593684], "extent": [53.43404063471904, 9.215508640095399]}, "name": "Grand Challenges India - IKP-GCE:  Seeking India Specific Innovations", "outbound": 1400000.0}, {"from": {"name": "Bill & Melinda Gates Foundation", "coordinates": [-122.3321, 47.6062], "extent": [1, 1]}, "to": {"name": "Chad", "coordinates": [18.732207, 15.454166], "extent": [5.950103265730275, 5.7594975349032165]}, "name": "Using Polio eradication gains to strengthen routine EPI in Chad; RED approach in 15 districts", "outbound": 1504340.0}, {"from": {"name": "Bill & Melinda Gates Foundation", "coordinates": [-122.3321, 47.6062], "extent": [1, 1]}, "to": {"name": "China", "coordinates": [104.195397, 35.86166], "extent": [59.680477762670186, 15.726201861922428]}, "name": "Establish and implement community based organizations (CBO) participation mechanism in HIV/AIDS control", "outbound": 3000000.0}, {"from": {"name": "Bill & Melinda Gates Foundation", "coordinates": [-122.3321, 47.6062], "extent": [1, 1]}, "to": {"name": "Haiti", "coordinates": [-72.28521500000001, 18.971187], "extent": [0.8530098245468459, 0.8467078351306315]}, "name": "Partners in Health capacity building and option exploration", "outbound": 1000000.0}, {"from": {"name": "Bill & Melinda Gates Foundation", "coordinates": [-122.3321, 47.6062], "extent": [1, 1]}, "to": {"name": "Liberia", "coordinates": [-9.429499, 6.4280550000000005], "extent": [1.7141923160755292, 1.6962356816572859]}, "name": "Ebola: Emergency Response to the Ebola Outbreak in West Africa", "outbound": 680000.0}, {"from": {"name": "Bill & Melinda Gates Foundation", "coordinates": [-122.3321, 47.6062], "extent": [1, 1]}, "to": {"name": "Sierra Leone", "coordinates": [-11.779889, 8.460555000000001], "extent": [2.404759322114951, 1.3708462022425487]}, "name": "Ebola: Emergency Response to the Ebola Outbreak in West Africa", "outbound": 660000.0}, {"from": {"name": "Bill & Melinda Gates Foundation", "coordinates": [-122.3321, 47.6062], "extent": [1, 1]}, "to": {"name": "Guinea", "coordinates": [-9.696645, 9.945587], "extent": [2.905463971485629, 2.520248551742249]}, "name": "Ebola: Emergency Response to the Ebola Outbreak in West Africa", "outbound": 660000.0}, {"from": {"name": "Bill & Melinda Gates Foundation", "coordinates": [-122.3321, 47.6062], "extent": [1, 1]}, "to": {"name": "Nigeria", "coordinates": [8.675277000000001, 9.081999], "extent": [5.186969091074942, 4.885213423919446]}, "name": "Community Management of Malnutrition (CMAM) Activities in Borno State", "outbound": 1000000.0}, {"from": {"name": "Bill & Melinda Gates Foundation", "coordinates": [-122.3321, 47.6062], "extent": [1, 1]}, "to": {"name": "India", "coordinates": [78.96288, 20.593684], "extent": [53.43404063471904, 9.215508640095399]}, "name": "National Scale up for BBC Solutions in India: Initial Funding for IVR Software&Integration", "outbound": 511282.0}, {"from": {"name": "Bill & Melinda Gates Foundation", "coordinates": [-122.3321, 47.6062], "extent": [1, 1]}, "to": {"name": "Pakistan", "coordinates": [69.345116, 30.375321000000003], "extent": [9.012031736833217, 4.557365954263939]}, "name": "WHO Pakistan Surge", "outbound": 77601500.0}, {"from": {"name": "Bill & Melinda Gates Foundation", "coordinates": [-122.3321, 47.6062], "extent": [1, 1]}, "to": {"name": "Afghanistan", "coordinates": [67.709953, 33.93911], "extent": [5.019610530615708, 4.089987410942811]}, "name": "Strengthening EMRO Regional and Country Polio Operations", "outbound": 9452989.0}, {"from": {"name": "Bill & Melinda Gates Foundation", "coordinates": [-122.3321, 47.6062], "extent": [1, 1]}, "to": {"name": "Somalia", "coordinates": [46.199616, 5.152149], "extent": [9.533869875815826, 4.058781298887248]}, "name": "Strengthening EMRO Regional and Country Polio Operations", "outbound": 9332818.0}, {"from": {"name": "Bill & Melinda Gates Foundation", "coordinates": [-122.3321, 47.6062], "extent": [1, 1]}, "to": {"name": "Iraq", "coordinates": [43.679291, 33.223191], "extent": [14.343691583345784, 3.360304066554073]}, "name": "Strengthening EMRO Regional and Country Polio Operations", "outbound": 7330075.0}, {"from": {"name": "Bill & Melinda Gates Foundation", "coordinates": [-122.3321, 47.6062], "extent": [1, 1]}, "to": {"name": "Pakistan", "coordinates": [69.345116, 30.375321000000003], "extent": [9.012031736833217, 4.557365954263939]}, "name": "WHO Pakistan contingency funding", "outbound": 37172290.0}, {"from": {"name": "Bill & Melinda Gates Foundation", "coordinates": [-122.3321, 47.6062], "extent": [1, 1]}, "to": {"name": "Nigeria", "coordinates": [8.675277000000001, 9.081999], "extent": [5.186969091074942, 4.885213423919446]}, "name": "Private sector introduction of Sayana Press in Nigeria", "outbound": 1500000.0}, {"from": {"name": "Bill & Melinda Gates Foundation", "coordinates": [-122.3321, 47.6062], "extent": [1, 1]}, "to": {"name": "Pakistan", "coordinates": [69.345116, 30.375321000000003], "extent": [9.012031736833217, 4.557365954263939]}, "name": "Phase II of Polio Demonstration Project with AKU Pakistan", "outbound": 13607560.0}, {"from": {"name": "Bill & Melinda Gates Foundation", "coordinates": [-122.3321, 47.6062], "extent": [1, 1]}, "to": {"name": "Nigeria", "coordinates": [8.675277000000001, 9.081999], "extent": [5.186969091074942, 4.885213423919446]}, "name": "Ebola: Emergency Response to the Ebola Outbreak in West Africa", "outbound": 1400000.0}, {"from": {"name": "Bill & Melinda Gates Foundation", "coordinates": [-122.3321, 47.6062], "extent": [1, 1]}, "to": {"name": "India", "coordinates": [78.96288, 20.593684], "extent": [53.43404063471904, 9.215508640095399]}, "name": "Dissemination of Avahan best practices and technical assistance to Punjab State AIDS Control Society (PSACS) for improving program quality", "outbound": 65000.0}, {"from": {"name": "Bill & Melinda Gates Foundation", "coordinates": [-122.3321, 47.6062], "extent": [1, 1]}, "to": {"name": "Nigeria", "coordinates": [8.675277000000001, 9.081999], "extent": [5.186969091074942, 4.885213423919446]}, "name": "Nigeria Immunization Challenge 2013", "outbound": 500000.0}, {"from": {"name": "Bill & Melinda Gates Foundation", "coordinates": [-122.3321, 47.6062], "extent": [1, 1]}, "to": {"name": "Guinea", "coordinates": [-9.696645, 9.945587], "extent": [2.905463971485629, 2.520248551742249]}, "name": "Ebola: Emergency Response to Ebola Crisis in West Africa", "outbound": 990000.0}, {"from": {"name": "Bill & Melinda Gates Foundation", "coordinates": [-122.3321, 47.6062], "extent": [1, 1]}, "to": {"name": "Liberia", "coordinates": [-9.429499, 6.4280550000000005], "extent": [1.7141923160755292, 1.6962356816572859]}, "name": "Ebola: Emergency Response to Ebola Crisis in West Africa", "outbound": 1020000.0}, {"from": {"name": "Bill & Melinda Gates Foundation", "coordinates": [-122.3321, 47.6062], "extent": [1, 1]}, "to": {"name": "Sierra Leone", "coordinates": [-11.779889, 8.460555000000001], "extent": [2.404759322114951, 1.3708462022425487]}, "name": "Ebola: Emergency Response to Ebola Crisis in West Africa", "outbound": 990000.0}, {"from": {"name": "Bill & Melinda Gates Foundation", "coordinates": [-122.3321, 47.6062], "extent": [1, 1]}, "to": {"name": "Ghana", "coordinates": [-1.0231940000000002, 7.946527000000001], "extent": [26.862604725489387, 2.4824624745457715]}, "name": "Developing a uniform soil-transmitted helminth (STH) analysis consortium for analyzing fecal waste samples", "outbound": 96340.8}, {"from": {"name": "Bill & Melinda Gates Foundation", "coordinates": [-122.3321, 47.6062], "extent": [1, 1]}, "to": {"name": "South Africa", "coordinates": [22.937506, -30.559482], "extent": [8.569200292968409, 5.613921512918143]}, "name": "Developing a uniform soil-transmitted helminth (STH) analysis consortium for analyzing fecal waste samples", "outbound": 192682.0}, {"from": {"name": "Bill & Melinda Gates Foundation", "coordinates": [-122.3321, 47.6062], "extent": [1, 1]}, "to": {"name": "India", "coordinates": [78.96288, 20.593684], "extent": [53.43404063471904, 9.215508640095399]}, "name": "Developing a uniform soil-transmitted helminth (STH) analysis consortium for analyzing fecal waste samples", "outbound": 96340.8}, {"from": {"name": "Bill & Melinda Gates Foundation", "coordinates": [-122.3321, 47.6062], "extent": [1, 1]}, "to": {"name": "Liberia", "coordinates": [-9.429499, 6.4280550000000005], "extent": [1.7141923160755292, 1.6962356816572859]}, "name": "Ebola: Emergency Response to the Ebola Crisis in Liberia", "outbound": 3000000.0}, {"from": {"name": "Bill & Melinda Gates Foundation", "coordinates": [-122.3321, 47.6062], "extent": [1, 1]}, "to": {"name": "Guinea", "coordinates": [-9.696645, 9.945587], "extent": [2.905463971485629, 2.520248551742249]}, "name": "Ebola: A Phase I/II Pilot Clinical Trial to Evaluate the Efficacy and Safety of Ebola Virus Disease (EVD) Convalescent Plasma (ECP) for treatment of EVD", "outbound": 3696876.0}, {"from": {"name": "Bill & Melinda Gates Foundation", "coordinates": [-122.3321, 47.6062], "extent": [1, 1]}, "to": {"name": "Sierra Leone", "coordinates": [-11.779889, 8.460555000000001], "extent": [2.404759322114951, 1.3708462022425487]}, "name": "Ebola: A Phase I/II Pilot Clinical Trial to Evaluate the Efficacy and Safety of Ebola Virus Disease (EVD) Convalescent Plasma (ECP) for treatment of EVD", "outbound": 3696876.0}, {"from": {"name": "Bill & Melinda Gates Foundation", "coordinates": [-122.3321, 47.6062], "extent": [1, 1]}, "to": {"name": "Liberia", "coordinates": [-9.429499, 6.4280550000000005], "extent": [1.7141923160755292, 1.6962356816572859]}, "name": "Ebola: A Phase I/II Pilot Clinical Trial to Evaluate the Efficacy and Safety of Ebola Virus Disease (EVD) Convalescent Plasma (ECP) for treatment of EVD", "outbound": 3808892.0}, {"from": {"name": "Bill & Melinda Gates Foundation", "coordinates": [-122.3321, 47.6062], "extent": [1, 1]}, "to": {"name": "Cameroon", "coordinates": [12.354722, 7.369722], "extent": [7.528016843867639, 3.504692696112229]}, "name": "Cameroon GIS Support", "outbound": 536654.0}, {"from": {"name": "Bill & Melinda Gates Foundation", "coordinates": [-122.3321, 47.6062], "extent": [1, 1]}, "to": {"name": "India", "coordinates": [78.96288, 20.593684], "extent": [53.43404063471904, 9.215508640095399]}, "name": "Family Planning serial: MKBKSH", "outbound": 1500000.0}, {"from": {"name": "Bill & Melinda Gates Foundation", "coordinates": [-122.3321, 47.6062], "extent": [1, 1]}, "to": {"name": "China", "coordinates": [104.195397, 35.86166], "extent": [59.680477762670186, 15.726201861922428]}, "name": "Shifting the China Tobacco Control Policy Landscape", "outbound": 5549880.0}, {"from": {"name": "Bill & Melinda Gates Foundation", "coordinates": [-122.3321, 47.6062], "extent": [1, 1]}, "to": {"name": "Liberia", "coordinates": [-9.429499, 6.4280550000000005], "extent": [1.7141923160755292, 1.6962356816572859]}, "name": "Ebola: Emergency Response to Ebola Crisis in West Africa", "outbound": 1000000.0}, {"from": {"name": "Bill & Melinda Gates Foundation", "coordinates": [-122.3321, 47.6062], "extent": [1, 1]}, "to": {"name": "Guinea", "coordinates": [-9.696645, 9.945587], "extent": [2.905463971485629, 2.520248551742249]}, "name": "Ebola: Emergency Response to the Ebola Outbreak in Guinea", "outbound": 500000.0}, {"from": {"name": "Bill & Melinda Gates Foundation", "coordinates": [-122.3321, 47.6062], "extent": [1, 1]}, "to": {"name": "Burkina Faso", "coordinates": [-1.561593, 12.238333], "extent": [2.8114751603315202, 2.661557236671882]}, "name": "Global Early Adolescent Study -- Francophone Africa", "outbound": 319251.5}, {"from": {"name": "Bill & Melinda Gates Foundation", "coordinates": [-122.3321, 47.6062], "extent": [1, 1]}, "to": {"name": "Nigeria", "coordinates": [8.675277000000001, 9.081999], "extent": [5.186969091074942, 4.885213423919446]}, "name": "Reinvestment: Advocating for Improved Delivery of Maternal and Newborn Health", "outbound": 2152941.0}, {"from": {"name": "Bill & Melinda Gates Foundation", "coordinates": [-122.3321, 47.6062], "extent": [1, 1]}, "to": {"name": "Uganda", "coordinates": [32.290275, 1.373333], "extent": [12.733422566078612, 2.498075763117945]}, "name": "Reinvestment: Advocating for Improved Delivery of Maternal and Newborn Health", "outbound": 358823.8}, {"from": {"name": "Bill & Melinda Gates Foundation", "coordinates": [-122.3321, 47.6062], "extent": [1, 1]}, "to": {"name": "Pakistan", "coordinates": [69.345116, 30.375321000000003], "extent": [9.012031736833217, 4.557365954263939]}, "name": "Reinvestment: Advocating for Improved Delivery of Maternal and Newborn Health", "outbound": 1578822.0}, {"from": {"name": "Bill & Melinda Gates Foundation", "coordinates": [-122.3321, 47.6062], "extent": [1, 1]}, "to": {"name": "India", "coordinates": [78.96288, 20.593684], "extent": [53.43404063471904, 9.215508640095399]}, "name": "Explore whether the ASER approach is applicable to the health sector in India", "outbound": 32814.0}, {"from": {"name": "Bill & Melinda Gates Foundation", "coordinates": [-122.3321, 47.6062], "extent": [1, 1]}, "to": {"name": "India", "coordinates": [78.96288, 20.593684], "extent": [53.43404063471904, 9.215508640095399]}, "name": "#FS Technical support for M&E to PRADAN", "outbound": 400000.0}, {"from": {"name": "Bill & Melinda Gates Foundation", "coordinates": [-122.3321, 47.6062], "extent": [1, 1]}, "to": {"name": "India", "coordinates": [78.96288, 20.593684], "extent": [53.43404063471904, 9.215508640095399]}, "name": "Maternal Health Task Force  (III)", "outbound": 2167120.0}, {"from": {"name": "Bill & Melinda Gates Foundation", "coordinates": [-122.3321, 47.6062], "extent": [1, 1]}, "to": {"name": "Nigeria", "coordinates": [8.675277000000001, 9.081999], "extent": [5.186969091074942, 4.885213423919446]}, "name": "Maternal Health Task Force  (III)", "outbound": 2167120.0}, {"from": {"name": "Bill & Melinda Gates Foundation", "coordinates": [-122.3321, 47.6062], "extent": [1, 1]}, "to": {"name": "Ethiopia", "coordinates": [40.489672999999996, 9.145], "extent": [5.614516384368275, 5.396205888474094]}, "name": "Maternal Health Task Force  (III)", "outbound": 2167120.0}, {"from": {"name": "Bill & Melinda Gates Foundation", "coordinates": [-122.3321, 47.6062], "extent": [1, 1]}, "to": {"name": "Senegal", "coordinates": [-14.452361999999999, 14.497401000000002], "extent": [6.386893556640105, 2.2513370495563585]}, "name": "Ebola: Setting up the Health Emergency Operations Center and Managing the Ebola Crisis in Senegal", "outbound": 1804070.0}, {"from": {"name": "Bill & Melinda Gates Foundation", "coordinates": [-122.3321, 47.6062], "extent": [1, 1]}, "to": {"name": "Ethiopia", "coordinates": [40.489672999999996, 9.145], "extent": [5.614516384368275, 5.396205888474094]}, "name": "Optimization of Health Extension Program Implementation in Ethiopia", "outbound": 4896050.0}, {"from": {"name": "Bill & Melinda Gates Foundation", "coordinates": [-122.3321, 47.6062], "extent": [1, 1]}, "to": {"name": "India", "coordinates": [78.96288, 20.593684], "extent": [53.43404063471904, 9.215508640095399]}, "name": "National Scale up by Govt. of India for ICT enabled behavior change messaging across the RMNCHA spectrum - Hardware and system integration", "outbound": 1449692.0}, {"from": {"name": "Bill & Melinda Gates Foundation", "coordinates": [-122.3321, 47.6062], "extent": [1, 1]}, "to": {"name": "India", "coordinates": [78.96288, 20.593684], "extent": [53.43404063471904, 9.215508640095399]}, "name": "National Scale up by Government of India for ICT enabled behavior change messaging across the RMNCHA spectrum: Grant for MOTECH and BBCMA Application Development", "outbound": 814542.0}, {"from": {"name": "Bill & Melinda Gates Foundation", "coordinates": [-122.3321, 47.6062], "extent": [1, 1]}, "to": {"name": "India", "coordinates": [78.96288, 20.593684], "extent": [53.43404063471904, 9.215508640095399]}, "name": "Development of a draft National Plan for Cholera Prevention and Control in India", "outbound": 107307.0}, {"from": {"name": "Bill & Melinda Gates Foundation", "coordinates": [-122.3321, 47.6062], "extent": [1, 1]}, "to": {"name": "India", "coordinates": [78.96288, 20.593684], "extent": [53.43404063471904, 9.215508640095399]}, "name": "Evaluation of available rapid diagnostic tests for cholera", "outbound": 159775.0}, {"from": {"name": "Bill & Melinda Gates Foundation", "coordinates": [-122.3321, 47.6062], "extent": [1, 1]}, "to": {"name": "Malawi", "coordinates": [34.301525, -13.254307999999998], "extent": [2.2646125234687022, 1.7495429462177536]}, "name": "Advocating for RMNCAH at the Global, Regional and Country Levels", "outbound": 545580.0}, {"from": {"name": "Bill & Melinda Gates Foundation", "coordinates": [-122.3321, 47.6062], "extent": [1, 1]}, "to": {"name": "Zambia", "coordinates": [27.849332, -13.133897], "extent": [5.229263345450484, 4.409488671967828]}, "name": "Advocating for RMNCAH at the Global, Regional and Country Levels", "outbound": 363720.0}, {"from": {"name": "Bill & Melinda Gates Foundation", "coordinates": [-122.3321, 47.6062], "extent": [1, 1]}, "to": {"name": "Mozambique", "coordinates": [35.529562, -18.665695], "extent": [4.6287166120749985, 4.550700252890953]}, "name": "Advocating for RMNCAH at the Global, Regional and Country Levels", "outbound": 545580.0}, {"from": {"name": "Bill & Melinda Gates Foundation", "coordinates": [-122.3321, 47.6062], "extent": [1, 1]}, "to": {"name": "Guinea-Bissau", "coordinates": [-15.180413, 11.803749], "extent": [1.3360452845626656, 0.9659973959554221]}, "name": "Ebola: Emergency Response to the Ebola Outbreak in Guinea Bissau", "outbound": 900741.0}, {"from": {"name": "Bill & Melinda Gates Foundation", "coordinates": [-122.3321, 47.6062], "extent": [1, 1]}, "to": {"name": "Senegal", "coordinates": [-14.452361999999999, 14.497401000000002], "extent": [6.386893556640105, 2.2513370495563585]}, "name": "Follow-up engagement of religious leaders on the Dakar Declaration", "outbound": 999882.0}, {"from": {"name": "Bill & Melinda Gates Foundation", "coordinates": [-122.3321, 47.6062], "extent": [1, 1]}, "to": {"name": "Singapore", "coordinates": [103.819836, 1.352083], "extent": [0.6165487480401908, 0.13377491345589895]}, "name": "Quantifying Healthy birth, growth and development knowledge integration (Singapore)", "outbound": 123000.0}, {"from": {"name": "Bill & Melinda Gates Foundation", "coordinates": [-122.3321, 47.6062], "extent": [1, 1]}, "to": {"name": "India", "coordinates": [78.96288, 20.593684], "extent": [53.43404063471904, 9.215508640095399]}, "name": "Optimising the implementation of synthetic pyrethroid IRS for VL elimination", "outbound": 5271390.0}, {"from": {"name": "Bill & Melinda Gates Foundation", "coordinates": [-122.3321, 47.6062], "extent": [1, 1]}, "to": {"name": "Pakistan", "coordinates": [69.345116, 30.375321000000003], "extent": [9.012031736833217, 4.557365954263939]}, "name": "Partnership for polio eradication", "outbound": 36000000.0}, {"from": {"name": "Bill & Melinda Gates Foundation", "coordinates": [-122.3321, 47.6062], "extent": [1, 1]}, "to": {"name": "India", "coordinates": [78.96288, 20.593684], "extent": [53.43404063471904, 9.215508640095399]}, "name": "Impact Assessment Study of Rotavirus Vaccine Linked to the National Rotavirus Surveillance Network and Intussusception Surveillance in India", "outbound": 1673600.0}, {"from": {"name": "Bill & Melinda Gates Foundation", "coordinates": [-122.3321, 47.6062], "extent": [1, 1]}, "to": {"name": "Bangladesh", "coordinates": [90.35633100000001, 23.684994], "extent": [15.90813216138605, 1.9525453224636848]}, "name": "Quantifying Healthy birth, growth and development knowledge integration", "outbound": 205746.0}, {"from": {"name": "Bill & Melinda Gates Foundation", "coordinates": [-122.3321, 47.6062], "extent": [1, 1]}, "to": {"name": "India", "coordinates": [78.96288, 20.593684], "extent": [53.43404063471904, 9.215508640095399]}, "name": "Launch platform for accelerated market uptake of affordable quality diagnostics in the Indian private sector", "outbound": 1675044.0}, {"from": {"name": "Bill & Melinda Gates Foundation", "coordinates": [-122.3321, 47.6062], "extent": [1, 1]}, "to": {"name": "India", "coordinates": [78.96288, 20.593684], "extent": [53.43404063471904, 9.215508640095399]}, "name": "Patient Centered Process Quality for Maternal and Child Health and Family Planning", "outbound": 2323286.0}, {"from": {"name": "Bill & Melinda Gates Foundation", "coordinates": [-122.3321, 47.6062], "extent": [1, 1]}, "to": {"name": "Kenya", "coordinates": [37.906193, -0.023559], "extent": [3.87323612334054, 3.8721612987471192]}, "name": "Patient Centered Process Quality for Maternal and Child Health and Family Planning", "outbound": 2323286.0}, {"from": {"name": "Bill & Melinda Gates Foundation", "coordinates": [-122.3321, 47.6062], "extent": [1, 1]}, "to": {"name": "India", "coordinates": [78.96288, 20.593684], "extent": [53.43404063471904, 9.215508640095399]}, "name": "14th World Congress on Public Health", "outbound": 202790.0}, {"from": {"name": "Bill & Melinda Gates Foundation", "coordinates": [-122.3321, 47.6062], "extent": [1, 1]}, "to": {"name": "Ethiopia", "coordinates": [40.489672999999996, 9.145], "extent": [5.614516384368275, 5.396205888474094]}, "name": "Improving Adolescent Family Planning and Nutrition in Ethiopia through Structural Solutions", "outbound": 5764472.0}, {"from": {"name": "Bill & Melinda Gates Foundation", "coordinates": [-122.3321, 47.6062], "extent": [1, 1]}, "to": {"name": "Ethiopia", "coordinates": [40.489672999999996, 9.145], "extent": [5.614516384368275, 5.396205888474094]}, "name": "Severe Typhoid in Africa (SETA): Expansion of Typhoid Fever Surveillance in sub-Saharan Africa Program (TSAP) to Nigeria and Democratic Republic of the Congo and Implementation of Typhoid Carriage Study in an Endemic Population in Africa", "outbound": 190566.4}, {"from": {"name": "Bill & Melinda Gates Foundation", "coordinates": [-122.3321, 47.6062], "extent": [1, 1]}, "to": {"name": "Nigeria", "coordinates": [8.675277000000001, 9.081999], "extent": [5.186969091074942, 4.885213423919446]}, "name": "Severe Typhoid in Africa (SETA): Expansion of Typhoid Fever Surveillance in sub-Saharan Africa Program (TSAP) to Nigeria and Democratic Republic of the Congo and Implementation of Typhoid Carriage Study in an Endemic Population in Africa", "outbound": 2858495.0}, {"from": {"name": "Bill & Melinda Gates Foundation", "coordinates": [-122.3321, 47.6062], "extent": [1, 1]}, "to": {"name": "Kenya", "coordinates": [37.906193, -0.023559], "extent": [3.87323612334054, 3.8721612987471192]}, "name": "Severe Typhoid in Africa (SETA): Expansion of Typhoid Fever Surveillance in sub-Saharan Africa Program (TSAP) to Nigeria and Democratic Republic of the Congo and Implementation of Typhoid Carriage Study in an Endemic Population in Africa", "outbound": 190566.4}, {"from": {"name": "Bill & Melinda Gates Foundation", "coordinates": [-122.3321, 47.6062], "extent": [1, 1]}, "to": {"name": "Burkina Faso", "coordinates": [-1.561593, 12.238333], "extent": [2.8114751603315202, 2.661557236671882]}, "name": "Severe Typhoid in Africa (SETA): Expansion of Typhoid Fever Surveillance in sub-Saharan Africa Program (TSAP) to Nigeria and Democratic Republic of the Congo and Implementation of Typhoid Carriage Study in an Endemic Population in Africa", "outbound": 190566.4}, {"from": {"name": "Bill & Melinda Gates Foundation", "coordinates": [-122.3321, 47.6062], "extent": [1, 1]}, "to": {"name": "Madagascar", "coordinates": [46.869107, -18.766947000000002], "extent": [3.9076844271271716, 3.894358531662155]}, "name": "Severe Typhoid in Africa (SETA): Expansion of Typhoid Fever Surveillance in sub-Saharan Africa Program (TSAP) to Nigeria and Democratic Republic of the Congo and Implementation of Typhoid Carriage Study in an Endemic Population in Africa", "outbound": 3049064.0}, {"from": {"name": "Bill & Melinda Gates Foundation", "coordinates": [-122.3321, 47.6062], "extent": [1, 1]}, "to": {"name": "Ghana", "coordinates": [-1.0231940000000002, 7.946527000000001], "extent": [26.862604725489387, 2.4824624745457715]}, "name": "Severe Typhoid in Africa (SETA): Expansion of Typhoid Fever Surveillance in sub-Saharan Africa Program (TSAP) to Nigeria and Democratic Republic of the Congo and Implementation of Typhoid Carriage Study in an Endemic Population in Africa", "outbound": 190566.4}, {"from": {"name": "Bill & Melinda Gates Foundation", "coordinates": [-122.3321, 47.6062], "extent": [1, 1]}, "to": {"name": "Nigeria", "coordinates": [8.675277000000001, 9.081999], "extent": [5.186969091074942, 4.885213423919446]}, "name": "Nigeria: Kano Connect", "outbound": 922832.0}, {"from": {"name": "Bill & Melinda Gates Foundation", "coordinates": [-122.3321, 47.6062], "extent": [1, 1]}, "to": {"name": "India", "coordinates": [78.96288, 20.593684], "extent": [53.43404063471904, 9.215508640095399]}, "name": "17th International Congress on Infectious Diseases (ICID)", "outbound": 161230.0}, {"from": {"name": "Bill & Melinda Gates Foundation", "coordinates": [-122.3321, 47.6062], "extent": [1, 1]}, "to": {"name": "Pakistan", "coordinates": [69.345116, 30.375321000000003], "extent": [9.012031736833217, 4.557365954263939]}, "name": "Planning Grant for Center of Excellence for Women and Child Health with AKU/AKDN", "outbound": 674373.0}, {"from": {"name": "Bill & Melinda Gates Foundation", "coordinates": [-122.3321, 47.6062], "extent": [1, 1]}, "to": {"name": "India", "coordinates": [78.96288, 20.593684], "extent": [53.43404063471904, 9.215508640095399]}, "name": "Emerging Economy Leadership on TB", "outbound": 752203.0}, {"from": {"name": "Bill & Melinda Gates Foundation", "coordinates": [-122.3321, 47.6062], "extent": [1, 1]}, "to": {"name": "Ethiopia", "coordinates": [40.489672999999996, 9.145], "extent": [5.614516384368275, 5.396205888474094]}, "name": "Improving the quality of maternal and newborn health care services and outcomes at scale in Ethiopia while building the foundation for continuous quality improvement", "outbound": 9600340.0}, {"from": {"name": "Bill & Melinda Gates Foundation", "coordinates": [-122.3321, 47.6062], "extent": [1, 1]}, "to": {"name": "India", "coordinates": [78.96288, 20.593684], "extent": [53.43404063471904, 9.215508640095399]}, "name": "Research Activities in Support of the Global Polio Eradication Initiative 2015-2018", "outbound": 740206.0}, {"from": {"name": "Bill & Melinda Gates Foundation", "coordinates": [-122.3321, 47.6062], "extent": [1, 1]}, "to": {"name": "Afghanistan", "coordinates": [67.709953, 33.93911], "extent": [5.019610530615708, 4.089987410942811]}, "name": "Research Activities in Support of the Global Polio Eradication Initiative 2015-2018", "outbound": 666185.0}, {"from": {"name": "Bill & Melinda Gates Foundation", "coordinates": [-122.3321, 47.6062], "extent": [1, 1]}, "to": {"name": "Iraq", "coordinates": [43.679291, 33.223191], "extent": [14.343691583345784, 3.360304066554073]}, "name": "Research Activities in Support of the Global Polio Eradication Initiative 2015-2018", "outbound": 666185.0}, {"from": {"name": "Bill & Melinda Gates Foundation", "coordinates": [-122.3321, 47.6062], "extent": [1, 1]}, "to": {"name": "China", "coordinates": [104.195397, 35.86166], "extent": [59.680477762670186, 15.726201861922428]}, "name": "Research Activities in Support of the Global Polio Eradication Initiative 2015-2018", "outbound": 740206.0}, {"from": {"name": "Bill & Melinda Gates Foundation", "coordinates": [-122.3321, 47.6062], "extent": [1, 1]}, "to": {"name": "Nigeria", "coordinates": [8.675277000000001, 9.081999], "extent": [5.186969091074942, 4.885213423919446]}, "name": "Research Activities in Support of the Global Polio Eradication Initiative 2015-2018", "outbound": 2220620.0}, {"from": {"name": "Bill & Melinda Gates Foundation", "coordinates": [-122.3321, 47.6062], "extent": [1, 1]}, "to": {"name": "Pakistan", "coordinates": [69.345116, 30.375321000000003], "extent": [9.012031736833217, 4.557365954263939]}, "name": "Research Activities in Support of the Global Polio Eradication Initiative 2015-2018", "outbound": 2220620.0}, {"from": {"name": "Bill & Melinda Gates Foundation", "coordinates": [-122.3321, 47.6062], "extent": [1, 1]}, "to": {"name": "Mexico", "coordinates": [-102.552784, 23.634501], "extent": [98.27011874154131, 7.123842088334633]}, "name": "Research Activities in Support of the Global Polio Eradication Initiative 2015-2018", "outbound": 740206.0}, {"from": {"name": "Bill & Melinda Gates Foundation", "coordinates": [-122.3321, 47.6062], "extent": [1, 1]}, "to": {"name": "Somalia", "coordinates": [46.199616, 5.152149], "extent": [9.533869875815826, 4.058781298887248]}, "name": "Research Activities in Support of the Global Polio Eradication Initiative 2015-2018", "outbound": 666185.0}, {"from": {"name": "Bill & Melinda Gates Foundation", "coordinates": [-122.3321, 47.6062], "extent": [1, 1]}, "to": {"name": "Malawi", "coordinates": [34.301525, -13.254307999999998], "extent": [2.2646125234687022, 1.7495429462177536]}, "name": "Morbidity, carriage and genomic epidemiology of Typhoid Fever in a large epidemic in Malawi", "outbound": 523069.0}, {"from": {"name": "Bill & Melinda Gates Foundation", "coordinates": [-122.3321, 47.6062], "extent": [1, 1]}, "to": {"name": "India", "coordinates": [78.96288, 20.593684], "extent": [53.43404063471904, 9.215508640095399]}, "name": "Feasibility Study: Tracking Community Mortality due to Respiratory Syncytial Virus.", "outbound": 997330.0}, {"from": {"name": "Bill & Melinda Gates Foundation", "coordinates": [-122.3321, 47.6062], "extent": [1, 1]}, "to": {"name": "India", "coordinates": [78.96288, 20.593684], "extent": [53.43404063471904, 9.215508640095399]}, "name": "Comparison of performance of an automated reading of dCXR with interpretation of trained radiologist(s)", "outbound": 85000.0}, {"from": {"name": "Bill & Melinda Gates Foundation", "coordinates": [-122.3321, 47.6062], "extent": [1, 1]}, "to": {"name": "Haiti", "coordinates": [-72.28521500000001, 18.971187], "extent": [0.8530098245468459, 0.8467078351306315]}, "name": "GCE Phase I: \u00c9migr\u00e9s Remittances for Neglected Tropical Disease Mass Drug Administration and Iodine Deficiency Elimination", "outbound": 100000.0}, {"from": {"name": "Bill & Melinda Gates Foundation", "coordinates": [-122.3321, 47.6062], "extent": [1, 1]}, "to": {"name": "India", "coordinates": [78.96288, 20.593684], "extent": [53.43404063471904, 9.215508640095399]}, "name": "Leverage work with NRLPS (National Rural Livelihood Projects) to integrate Health and Agriculture interventions", "outbound": 999000.0}, {"from": {"name": "Bill & Melinda Gates Foundation", "coordinates": [-122.3321, 47.6062], "extent": [1, 1]}, "to": {"name": "Nigeria", "coordinates": [8.675277000000001, 9.081999], "extent": [5.186969091074942, 4.885213423919446]}, "name": "Resilient Health Services: Developing a Locally-Driven Model to Strengthen MNCH and Health Services in Insecure Environments in Nigeria", "outbound": 271893.0}, {"from": {"name": "Bill & Melinda Gates Foundation", "coordinates": [-122.3321, 47.6062], "extent": [1, 1]}, "to": {"name": "Kenya", "coordinates": [37.906193, -0.023559], "extent": [3.87323612334054, 3.8721612987471192]}, "name": "GCE Phase I: Lake Victoria Islands MalSchistoHel Integrated Project", "outbound": 100000.0}, {"from": {"name": "Bill & Melinda Gates Foundation", "coordinates": [-122.3321, 47.6062], "extent": [1, 1]}, "to": {"name": "Cuba", "coordinates": [-77.78116700000001, 21.521757], "extent": [1.8892286928446684, 1.684896651722532]}, "name": "Conference Grant - Latin American Association of Immunology - Immunocolombia 2015", "outbound": 10714.3}, {"from": {"name": "Bill & Melinda Gates Foundation", "coordinates": [-122.3321, 47.6062], "extent": [1, 1]}, "to": {"name": "Mexico", "coordinates": [-102.552784, 23.634501], "extent": [98.27011874154131, 7.123842088334633]}, "name": "Conference Grant - Latin American Association of Immunology - Immunocolombia 2015", "outbound": 14285.7}, {"from": {"name": "Bill & Melinda Gates Foundation", "coordinates": [-122.3321, 47.6062], "extent": [1, 1]}, "to": {"name": "Kenya", "coordinates": [37.906193, -0.023559], "extent": [3.87323612334054, 3.8721612987471192]}, "name": "GCE Phase I: Combining Visceral Leishmaniasis Risk Mapping and Deworming", "outbound": 100000.0}, {"from": {"name": "Bill & Melinda Gates Foundation", "coordinates": [-122.3321, 47.6062], "extent": [1, 1]}, "to": {"name": "Cameroon", "coordinates": [12.354722, 7.369722], "extent": [7.528016843867639, 3.504692696112229]}, "name": "GCE Phase I: Integrated Interventions for S. guineensis/Soil-Transmitted Helminthiasis Elimination", "outbound": 100000.0}, {"from": {"name": "Bill & Melinda Gates Foundation", "coordinates": [-122.3321, 47.6062], "extent": [1, 1]}, "to": {"name": "Haiti", "coordinates": [-72.28521500000001, 18.971187], "extent": [0.8530098245468459, 0.8467078351306315]}, "name": "GCE Phase I: Optimizing Community-Based Interventions", "outbound": 100000.0}, {"from": {"name": "Bill & Melinda Gates Foundation", "coordinates": [-122.3321, 47.6062], "extent": [1, 1]}, "to": {"name": "Kenya", "coordinates": [37.906193, -0.023559], "extent": [3.87323612334054, 3.8721612987471192]}, "name": "Strengthening country-level data on immunization financing and sustainability", "outbound": 472087.0}, {"from": {"name": "Bill & Melinda Gates Foundation", "coordinates": [-122.3321, 47.6062], "extent": [1, 1]}, "to": {"name": "Mozambique", "coordinates": [35.529562, -18.665695], "extent": [4.6287166120749985, 4.550700252890953]}, "name": "Strengthening country-level data on immunization financing and sustainability", "outbound": 417193.0}, {"from": {"name": "Bill & Melinda Gates Foundation", "coordinates": [-122.3321, 47.6062], "extent": [1, 1]}, "to": {"name": "Benin", "coordinates": [2.315834, 9.30769], "extent": [1.7174878497121115, 1.7057282662461577]}, "name": "Strengthening country-level data on immunization financing and sustainability", "outbound": 417193.0}, {"from": {"name": "Bill & Melinda Gates Foundation", "coordinates": [-122.3321, 47.6062], "extent": [1, 1]}, "to": {"name": "Ethiopia", "coordinates": [40.489672999999996, 9.145], "extent": [5.614516384368275, 5.396205888474094]}, "name": "Strengthening country-level data on immunization financing and sustainability", "outbound": 472087.0}, {"from": {"name": "Bill & Melinda Gates Foundation", "coordinates": [-122.3321, 47.6062], "extent": [1, 1]}, "to": {"name": "Central African Republic", "coordinates": [20.939444, 6.611111], "extent": [4.2376241261141825, 4.011811614109256]}, "name": "Strengthening Acute Flaccid Paralysis surveillance in Central African Republic", "outbound": 163394.0}, {"from": {"name": "Bill & Melinda Gates Foundation", "coordinates": [-122.3321, 47.6062], "extent": [1, 1]}, "to": {"name": "Ethiopia", "coordinates": [40.489672999999996, 9.145], "extent": [5.614516384368275, 5.396205888474094]}, "name": "Strengthening surveillance sites in challenging, high mortality areas in sub-Saharan Africa", "outbound": 49942.5}, {"from": {"name": "Bill & Melinda Gates Foundation", "coordinates": [-122.3321, 47.6062], "extent": [1, 1]}, "to": {"name": "Uganda", "coordinates": [32.290275, 1.373333], "extent": [12.733422566078612, 2.498075763117945]}, "name": "Technical harmonization meeting and initiation of regional approach and advancement of regional/cross-border collaboration for tsetse and trypanosomiasis control in Democratic Republic of Congo, South Sudan and Uganda", "outbound": 2494.49}, {"from": {"name": "Bill & Melinda Gates Foundation", "coordinates": [-122.3321, 47.6062], "extent": [1, 1]}, "to": {"name": "India", "coordinates": [78.96288, 20.593684], "extent": [53.43404063471904, 9.215508640095399]}, "name": "Conduct a pilot for injectables provision in the public sector in state of Haryana in India", "outbound": 1156190.0}, {"from": {"name": "Bill & Melinda Gates Foundation", "coordinates": [-122.3321, 47.6062], "extent": [1, 1]}, "to": {"name": "South Africa", "coordinates": [22.937506, -30.559482], "extent": [8.569200292968409, 5.613921512918143]}, "name": "MAL-ED: Analysis and Publication of 25-60 month Data including Anthropometry and Cognitive Development #HBGD", "outbound": 374909.0}, {"from": {"name": "Bill & Melinda Gates Foundation", "coordinates": [-122.3321, 47.6062], "extent": [1, 1]}, "to": {"name": "Peru", "coordinates": [-75.015152, -9.189967], "extent": [5.924819988370227, 5.7622330951434915]}, "name": "MAL-ED: Analysis and Publication of 25-60 month Data including Anthropometry and Cognitive Development #HBGD", "outbound": 374909.0}, {"from": {"name": "Bill & Melinda Gates Foundation", "coordinates": [-122.3321, 47.6062], "extent": [1, 1]}, "to": {"name": "Bangladesh", "coordinates": [90.35633100000001, 23.684994], "extent": [15.90813216138605, 1.9525453224636848]}, "name": "MAL-ED: Analysis and Publication of 25-60 month Data including Anthropometry and Cognitive Development #HBGD", "outbound": 374909.0}, {"from": {"name": "Bill & Melinda Gates Foundation", "coordinates": [-122.3321, 47.6062], "extent": [1, 1]}, "to": {"name": "Brazil", "coordinates": [-51.92528, -14.235004], "extent": [151.84610404130856, 14.832486781154206]}, "name": "MAL-ED: Analysis and Publication of 25-60 month Data including Anthropometry and Cognitive Development #HBGD", "outbound": 374909.0}, {"from": {"name": "Bill & Melinda Gates Foundation", "coordinates": [-122.3321, 47.6062], "extent": [1, 1]}, "to": {"name": "Nepal", "coordinates": [84.12400799999999, 28.394857000000002], "extent": [1.9642188192933647, 1.9499701332814292]}, "name": "MAL-ED: Analysis and Publication of 25-60 month Data including Anthropometry and Cognitive Development #HBGD", "outbound": 374909.0}, {"from": {"name": "Bill & Melinda Gates Foundation", "coordinates": [-122.3321, 47.6062], "extent": [1, 1]}, "to": {"name": "Pakistan", "coordinates": [69.345116, 30.375321000000003], "extent": [9.012031736833217, 4.557365954263939]}, "name": "MAL-ED: Analysis and Publication of 25-60 month Data including Anthropometry and Cognitive Development #HBGD", "outbound": 374909.0}, {"from": {"name": "Bill & Melinda Gates Foundation", "coordinates": [-122.3321, 47.6062], "extent": [1, 1]}, "to": {"name": "India", "coordinates": [78.96288, 20.593684], "extent": [53.43404063471904, 9.215508640095399]}, "name": "MAL-ED: Analysis and Publication of 25-60 month Data including Anthropometry and Cognitive Development #HBGD", "outbound": 374909.0}, {"from": {"name": "Bill & Melinda Gates Foundation", "coordinates": [-122.3321, 47.6062], "extent": [1, 1]}, "to": {"name": "Angola", "coordinates": [17.873887, -11.202691999999999], "extent": [27.597854356382456, 5.675224743314598]}, "name": "Enhancing AFP surveillance in Moxico Province", "outbound": 150000.0}, {"from": {"name": "Bill & Melinda Gates Foundation", "coordinates": [-122.3321, 47.6062], "extent": [1, 1]}, "to": {"name": "Chad", "coordinates": [18.732207, 15.454166], "extent": [5.950103265730275, 5.7594975349032165]}, "name": "Improving AFP surveillance through active research in Hadjer Lamis Region, Chad", "outbound": 329945.0}, {"from": {"name": "Bill & Melinda Gates Foundation", "coordinates": [-122.3321, 47.6062], "extent": [1, 1]}, "to": {"name": "Yemen", "coordinates": [48.516388, 15.552726999999999], "extent": [3.738184567944086, 3.693233003664083]}, "name": "GCE Phase I: Evidence-Based Integration of Schistosomiasis and Malaria", "outbound": 100000.0}, {"from": {"name": "Bill & Melinda Gates Foundation", "coordinates": [-122.3321, 47.6062], "extent": [1, 1]}, "to": {"name": "Bangladesh", "coordinates": [90.35633100000001, 23.684994], "extent": [15.90813216138605, 1.9525453224636848]}, "name": "Targeting and re-aligning agriculture to improve nutrition (TRAIN) in Bangladesh and India:  Exploring the impacts of male versus female targeting and male sensitization to accelerate agriculture\u2019s potential for nutrition change (DFID DF)", "outbound": 838006.0}, {"from": {"name": "Bill & Melinda Gates Foundation", "coordinates": [-122.3321, 47.6062], "extent": [1, 1]}, "to": {"name": "India", "coordinates": [78.96288, 20.593684], "extent": [53.43404063471904, 9.215508640095399]}, "name": "Targeting and re-aligning agriculture to improve nutrition (TRAIN) in Bangladesh and India:  Exploring the impacts of male versus female targeting and male sensitization to accelerate agriculture\u2019s potential for nutrition change (DFID DF)", "outbound": 209502.0}, {"from": {"name": "Bill & Melinda Gates Foundation", "coordinates": [-122.3321, 47.6062], "extent": [1, 1]}, "to": {"name": "Pakistan", "coordinates": [69.345116, 30.375321000000003], "extent": [9.012031736833217, 4.557365954263939]}, "name": "World Bank Pakistan NISP preparation technical assistance", "outbound": 50000.0}, {"from": {"name": "Bill & Melinda Gates Foundation", "coordinates": [-122.3321, 47.6062], "extent": [1, 1]}, "to": {"name": "Zambia", "coordinates": [27.849332, -13.133897], "extent": [5.229263345450484, 4.409488671967828]}, "name": "Maternity Homes Alliance in Zambia - Boston University", "outbound": 1999950.0}, {"from": {"name": "Bill & Melinda Gates Foundation", "coordinates": [-122.3321, 47.6062], "extent": [1, 1]}, "to": {"name": "Zambia", "coordinates": [27.849332, -13.133897], "extent": [5.229263345450484, 4.409488671967828]}, "name": "Maternity Homes Alliance in Zambia - Africare", "outbound": 996334.0}, {"from": {"name": "Bill & Melinda Gates Foundation", "coordinates": [-122.3321, 47.6062], "extent": [1, 1]}, "to": {"name": "India", "coordinates": [78.96288, 20.593684], "extent": [53.43404063471904, 9.215508640095399]}, "name": "Transforming the lives of women self-help group (SHG) members through productivity improvements in small ruminants", "outbound": 6808240.0}, {"from": {"name": "Bill & Melinda Gates Foundation", "coordinates": [-122.3321, 47.6062], "extent": [1, 1]}, "to": {"name": "Ethiopia", "coordinates": [40.489672999999996, 9.145], "extent": [5.614516384368275, 5.396205888474094]}, "name": "Platform for African Dairy Genetic Gain #Livestock R&D", "outbound": 4565200.0}, {"from": {"name": "Bill & Melinda Gates Foundation", "coordinates": [-122.3321, 47.6062], "extent": [1, 1]}, "to": {"name": "Bangladesh", "coordinates": [90.35633100000001, 23.684994], "extent": [15.90813216138605, 1.9525453224636848]}, "name": "Hospital Surveillance sampling with TaqMan at ICDDR,B", "outbound": 1335088.0}, {"from": {"name": "Bill & Melinda Gates Foundation", "coordinates": [-122.3321, 47.6062], "extent": [1, 1]}, "to": {"name": "India", "coordinates": [78.96288, 20.593684], "extent": [53.43404063471904, 9.215508640095399]}, "name": "Continue selective support to the National AIDS Control Organization (NACO) to ensure adequate coverage and quality of key prevention interventions under the 4th phase of the National AIDS Control Program (NACP IV)", "outbound": 3500000.0}, {"from": {"name": "Bill & Melinda Gates Foundation", "coordinates": [-122.3321, 47.6062], "extent": [1, 1]}, "to": {"name": "India", "coordinates": [78.96288, 20.593684], "extent": [53.43404063471904, 9.215508640095399]}, "name": "Technical Support Group (TSG) to support expansion of private sector engagement in India", "outbound": 1400000.0}, {"from": {"name": "Bill & Melinda Gates Foundation", "coordinates": [-122.3321, 47.6062], "extent": [1, 1]}, "to": {"name": "Nigeria", "coordinates": [8.675277000000001, 9.081999], "extent": [5.186969091074942, 4.885213423919446]}, "name": "Partnership for State PHC Transformation in Nigeria: Formative Phase", "outbound": 3295156.0}, {"from": {"name": "Bill & Melinda Gates Foundation", "coordinates": [-122.3321, 47.6062], "extent": [1, 1]}, "to": {"name": "Ethiopia", "coordinates": [40.489672999999996, 9.145], "extent": [5.614516384368275, 5.396205888474094]}, "name": "Development of Master Vaccine Seeds for Foot-and-Mouth Disease Control in sub-Saharan Africa #Livestock R&D", "outbound": 1494540.0}, {"from": {"name": "Bill & Melinda Gates Foundation", "coordinates": [-122.3321, 47.6062], "extent": [1, 1]}, "to": {"name": "Senegal", "coordinates": [-14.452361999999999, 14.497401000000002], "extent": [6.386893556640105, 2.2513370495563585]}, "name": "\u201cAlliance Droits et Sant\u00e9\" Renewal", "outbound": 369964.9}, {"from": {"name": "Bill & Melinda Gates Foundation", "coordinates": [-122.3321, 47.6062], "extent": [1, 1]}, "to": {"name": "Mali", "coordinates": [-3.9961660000000006, 17.570692], "extent": [19.666043653373347, 5.659954337220016]}, "name": "\u201cAlliance Droits et Sant\u00e9\" Renewal", "outbound": 374532.3}, {"from": {"name": "Bill & Melinda Gates Foundation", "coordinates": [-122.3321, 47.6062], "extent": [1, 1]}, "to": {"name": "Burkina Faso", "coordinates": [-1.561593, 12.238333], "extent": [2.8114751603315202, 2.661557236671882]}, "name": "\u201cAlliance Droits et Sant\u00e9\" Renewal", "outbound": 351695.0}, {"from": {"name": "Bill & Melinda Gates Foundation", "coordinates": [-122.3321, 47.6062], "extent": [1, 1]}, "to": {"name": "Benin", "coordinates": [2.315834, 9.30769], "extent": [1.7174878497121115, 1.7057282662461577]}, "name": "\u201cAlliance Droits et Sant\u00e9\" Renewal", "outbound": 365397.4}, {"from": {"name": "Bill & Melinda Gates Foundation", "coordinates": [-122.3321, 47.6062], "extent": [1, 1]}, "to": {"name": "Niger", "coordinates": [8.081666, 17.607789], "extent": [17.705993455360467, 5.721242976763092]}, "name": "\u201cAlliance Droits et Sant\u00e9\" Renewal", "outbound": 365397.4}, {"from": {"name": "Bill & Melinda Gates Foundation", "coordinates": [-122.3321, 47.6062], "extent": [1, 1]}, "to": {"name": "Afghanistan", "coordinates": [67.709953, 33.93911], "extent": [5.019610530615708, 4.089987410942811]}, "name": "Mobilizing Pakistani Diaspora&New Voices in the Gulf  to Eradicate Polio", "outbound": 133563.0}, {"from": {"name": "Bill & Melinda Gates Foundation", "coordinates": [-122.3321, 47.6062], "extent": [1, 1]}, "to": {"name": "Pakistan", "coordinates": [69.345116, 30.375321000000003], "extent": [9.012031736833217, 4.557365954263939]}, "name": "Mobilizing Pakistani Diaspora&New Voices in the Gulf  to Eradicate Polio", "outbound": 1202070.0},